{
  "Wildwgpj": {
    "stop_code": "Wildwgpj",
    "stop_name": "Cradle Bridge",
    "ward_name": "Trowbridge Central",
    "ward_code": "E05013478",
    "area": "Bath",
    "lat": 51.31794,
    "lon": -2.20732
  },
  "bstadag": {
    "stop_code": "bstadag",
    "stop_name": "McLaren Road",
    "ward_name": "Avonmouth and Lawrence Weston",
    "ward_code": "E05010886",
    "area": "Bristol",
    "lat": 51.50122,
    "lon": -2.699
  },
  "bstadaj": {
    "stop_code": "bstadaj",
    "stop_name": "Napier Road",
    "ward_name": "Avonmouth and Lawrence Weston",
    "ward_code": "E05010886",
    "area": "Bristol",
    "lat": 51.50014,
    "lon": -2.69765
  },
  "bstadaw": {
    "stop_code": "bstadaw",
    "stop_name": "Farr Street",
    "ward_name": "Avonmouth and Lawrence Weston",
    "ward_code": "E05010886",
    "area": "Bristol",
    "lat": 51.49912,
    "lon": -2.69484
  },
  "bstadja": {
    "stop_code": "bstadja",
    "stop_name": "Avonmouth Rbt",
    "ward_name": "Avonmouth and Lawrence Weston",
    "ward_code": "E05010886",
    "area": "Bristol",
    "lat": 51.49659,
    "lon": -2.69
  },
  "bstadjg": {
    "stop_code": "bstadjg",
    "stop_name": "Avonmouth Rbt",
    "ward_name": "Avonmouth and Lawrence Weston",
    "ward_code": "E05010886",
    "area": "Bristol",
    "lat": 51.49662,
    "lon": -2.68971
  },
  "bstadjt": {
    "stop_code": "bstadjt",
    "stop_name": "Portview Road",
    "ward_name": "Avonmouth and Lawrence Weston",
    "ward_code": "E05010886",
    "area": "Bristol",
    "lat": 51.49172,
    "lon": -2.68883
  },
  "bstadjw": {
    "stop_code": "bstadjw",
    "stop_name": "Akeman Way",
    "ward_name": "Avonmouth and Lawrence Weston",
    "ward_code": "E05010886",
    "area": "Bristol",
    "lat": 51.49747,
    "lon": -2.68883
  },
  "bstadmd": {
    "stop_code": "bstadmd",
    "stop_name": "Akeman Way",
    "ward_name": "Avonmouth and Lawrence Weston",
    "ward_code": "E05010886",
    "area": "Bristol",
    "lat": 51.49753,
    "lon": -2.68819
  },
  "bstadtw": {
    "stop_code": "bstadtw",
    "stop_name": "Barracks Lane",
    "ward_name": "Avonmouth and Lawrence Weston",
    "ward_code": "E05010886",
    "area": "Bristol",
    "lat": 51.49526,
    "lon": -2.68327
  },
  "bstadwd": {
    "stop_code": "bstadwd",
    "stop_name": "Barracks Lane",
    "ward_name": "Avonmouth and Lawrence Weston",
    "ward_code": "E05010886",
    "area": "Bristol",
    "lat": 51.49489,
    "lon": -2.68302
  },
  "bstadwp": {
    "stop_code": "bstadwp",
    "stop_name": "Meadow Grove",
    "ward_name": "Avonmouth and Lawrence Weston",
    "ward_code": "E05010886",
    "area": "Bristol",
    "lat": 51.49294,
    "lon": -2.68093
  },
  "bstadwt": {
    "stop_code": "bstadwt",
    "stop_name": "The Bean Acre",
    "ward_name": "Avonmouth and Lawrence Weston",
    "ward_code": "E05010886",
    "area": "Bristol",
    "lat": 51.49448,
    "lon": -2.67981
  },
  "bstagad": {
    "stop_code": "bstagad",
    "stop_name": "Station Road",
    "ward_name": "Avonmouth and Lawrence Weston",
    "ward_code": "E05010886",
    "area": "Bristol",
    "lat": 51.48518,
    "lon": -2.68067
  },
  "bstagag": {
    "stop_code": "bstagag",
    "stop_name": "The Bean Acre",
    "ward_name": "Avonmouth and Lawrence Weston",
    "ward_code": "E05010886",
    "area": "Bristol",
    "lat": 51.49441,
    "lon": -2.68026
  },
  "bstagap": {
    "stop_code": "bstagap",
    "stop_name": "Priory Gardens",
    "ward_name": "Avonmouth and Lawrence Weston",
    "ward_code": "E05010886",
    "area": "Bristol",
    "lat": 51.491,
    "lon": -2.67956
  },
  "bstagdm": {
    "stop_code": "bstagdm",
    "stop_name": "Priory Gardens",
    "ward_name": "Avonmouth and Lawrence Weston",
    "ward_code": "E05010886",
    "area": "Bristol",
    "lat": 51.49014,
    "lon": -2.67828
  },
  "bstagdp": {
    "stop_code": "bstagdp",
    "stop_name": "Station Road",
    "ward_name": "Avonmouth and Lawrence Weston",
    "ward_code": "E05010886",
    "area": "Bristol",
    "lat": 51.48518,
    "lon": -2.67939
  },
  "bstagja": {
    "stop_code": "bstagja",
    "stop_name": "Kings Weston Avenue",
    "ward_name": "Avonmouth and Lawrence Weston",
    "ward_code": "E05010886",
    "area": "Bristol",
    "lat": 51.495,
    "lon": -2.6776
  },
  "bstagmg": {
    "stop_code": "bstagmg",
    "stop_name": "Shirehampton Grn",
    "ward_name": "Avonmouth and Lawrence Weston",
    "ward_code": "E05010886",
    "area": "Bristol",
    "lat": 51.48888,
    "lon": -2.67452
  },
  "bstagmp": {
    "stop_code": "bstagmp",
    "stop_name": "Shirehampton Grn",
    "ward_name": "Avonmouth and Lawrence Weston",
    "ward_code": "E05010886",
    "area": "Bristol",
    "lat": 51.48878,
    "lon": -2.67437
  },
  "bstagmt": {
    "stop_code": "bstagmt",
    "stop_name": "Woodwell Road",
    "ward_name": "Avonmouth and Lawrence Weston",
    "ward_code": "E05010886",
    "area": "Bristol",
    "lat": 51.48562,
    "lon": -2.67408
  },
  "bstagmw": {
    "stop_code": "bstagmw",
    "stop_name": "Woodwell Road",
    "ward_name": "Avonmouth and Lawrence Weston",
    "ward_code": "E05010886",
    "area": "Bristol",
    "lat": 51.48604,
    "lon": -2.67358
  },
  "bstagpa": {
    "stop_code": "bstagpa",
    "stop_name": "The Roman Villa",
    "ward_name": "Avonmouth and Lawrence Weston",
    "ward_code": "E05010886",
    "area": "Bristol",
    "lat": 51.49504,
    "lon": -2.67317
  },
  "bstagpd": {
    "stop_code": "bstagpd",
    "stop_name": "The Roman Villa",
    "ward_name": "Avonmouth and Lawrence Weston",
    "ward_code": "E05010886",
    "area": "Bristol",
    "lat": 51.49516,
    "lon": -2.67297
  },
  "bstagtj": {
    "stop_code": "bstagtj",
    "stop_name": "Park Road",
    "ward_name": "Avonmouth and Lawrence Weston",
    "ward_code": "E05010886",
    "area": "Bristol",
    "lat": 51.48723,
    "lon": -2.66988
  },
  "bstagtm": {
    "stop_code": "bstagtm",
    "stop_name": "Park Road",
    "ward_name": "Avonmouth and Lawrence Weston",
    "ward_code": "E05010886",
    "area": "Bristol",
    "lat": 51.48695,
    "lon": -2.66987
  },
  "bstagtp": {
    "stop_code": "bstagtp",
    "stop_name": "Badenham Grove",
    "ward_name": "Avonmouth and Lawrence Weston",
    "ward_code": "E05010886",
    "area": "Bristol",
    "lat": 51.49643,
    "lon": -2.66985
  },
  "bstagtw": {
    "stop_code": "bstagtw",
    "stop_name": "Badenham Grove",
    "ward_name": "Avonmouth and Lawrence Weston",
    "ward_code": "E05010886",
    "area": "Bristol",
    "lat": 51.497,
    "lon": -2.66896
  },
  "bstagwa": {
    "stop_code": "bstagwa",
    "stop_name": "Moor Grove",
    "ward_name": "Avonmouth and Lawrence Weston",
    "ward_code": "E05010886",
    "area": "Bristol",
    "lat": 51.49855,
    "lon": -2.6658
  },
  "bstagwd": {
    "stop_code": "bstagwd",
    "stop_name": "Penpole Lane",
    "ward_name": "Avonmouth and Lawrence Weston",
    "ward_code": "E05010886",
    "area": "Bristol",
    "lat": 51.49089,
    "lon": -2.66513
  },
  "bstagwg": {
    "stop_code": "bstagwg",
    "stop_name": "Penpole Lane",
    "ward_name": "Avonmouth and Lawrence Weston",
    "ward_code": "E05010886",
    "area": "Bristol",
    "lat": 51.49083,
    "lon": -2.66478
  },
  "bstagwm": {
    "stop_code": "bstagwm",
    "stop_name": "Moor Grove",
    "ward_name": "Avonmouth and Lawrence Weston",
    "ward_code": "E05010886",
    "area": "Bristol",
    "lat": 51.49963,
    "lon": -2.66393
  },
  "bstajaj": {
    "stop_code": "bstajaj",
    "stop_name": "Long Cross Lay-by",
    "ward_name": "Avonmouth and Lawrence Weston",
    "ward_code": "E05010886",
    "area": "Bristol",
    "lat": 51.50236,
    "lon": -2.65921
  },
  "bstajam": {
    "stop_code": "bstajam",
    "stop_name": "Long Cross Lay-by",
    "ward_name": "Avonmouth and Lawrence Weston",
    "ward_code": "E05010886",
    "area": "Bristol",
    "lat": 51.50203,
    "lon": -2.65924
  },
  "bstajap": {
    "stop_code": "bstajap",
    "stop_name": "Westbury Lane",
    "ward_name": "Avonmouth and Lawrence Weston",
    "ward_code": "E05010886",
    "area": "Bristol",
    "lat": 51.49166,
    "lon": -2.65704
  },
  "bstajda": {
    "stop_code": "bstajda",
    "stop_name": "Westbury Lane",
    "ward_name": "Avonmouth and Lawrence Weston",
    "ward_code": "E05010886",
    "area": "Bristol",
    "lat": 51.49171,
    "lon": -2.65619
  },
  "bstajdg": {
    "stop_code": "bstajdg",
    "stop_name": "Lawrence Weston Road",
    "ward_name": "Avonmouth and Lawrence Weston",
    "ward_code": "E05010886",
    "area": "Bristol",
    "lat": 51.50478,
    "lon": -2.65586
  },
  "bstajdt": {
    "stop_code": "bstajdt",
    "stop_name": "Woodleaze",
    "ward_name": "Avonmouth and Lawrence Weston",
    "ward_code": "E05010886",
    "area": "Bristol",
    "lat": 51.48699,
    "lon": -2.65459
  },
  "bstajdw": {
    "stop_code": "bstajdw",
    "stop_name": "Lawrence Weston Road",
    "ward_name": "Avonmouth and Lawrence Weston",
    "ward_code": "E05010886",
    "area": "Bristol",
    "lat": 51.50501,
    "lon": -2.65471
  },
  "bstajga": {
    "stop_code": "bstajga",
    "stop_name": "Woodleaze",
    "ward_name": "Stoke Bishop",
    "ward_code": "E05010916",
    "area": "Bristol",
    "lat": 51.48714,
    "lon": -2.65433
  },
  "bstajgm": {
    "stop_code": "bstajgm",
    "stop_name": "High Grove",
    "ward_name": "Avonmouth and Lawrence Weston",
    "ward_code": "E05010886",
    "area": "Bristol",
    "lat": 51.48944,
    "lon": -2.6521
  },
  "bstajmj": {
    "stop_code": "bstajmj",
    "stop_name": "Riverleaze",
    "ward_name": "Stoke Bishop",
    "ward_code": "E05010916",
    "area": "Bristol",
    "lat": 51.48224,
    "lon": -2.65017
  },
  "bstajmw": {
    "stop_code": "bstajmw",
    "stop_name": "Riverleaze",
    "ward_name": "Stoke Bishop",
    "ward_code": "E05010916",
    "area": "Bristol",
    "lat": 51.48196,
    "lon": -2.64943
  },
  "bstajpt": {
    "stop_code": "bstajpt",
    "stop_name": "Sunny Hill",
    "ward_name": "Avonmouth and Lawrence Weston",
    "ward_code": "E05010886",
    "area": "Bristol",
    "lat": 51.49109,
    "lon": -2.64881
  },
  "bstajta": {
    "stop_code": "bstajta",
    "stop_name": "Sea Mills Square",
    "ward_name": "Stoke Bishop",
    "ward_code": "E05010916",
    "area": "Bristol",
    "lat": 51.48823,
    "lon": -2.64889
  },
  "bstajtd": {
    "stop_code": "bstajtd",
    "stop_name": "Chapel Lane",
    "ward_name": "Avonmouth and Lawrence Weston",
    "ward_code": "E05010886",
    "area": "Bristol",
    "lat": 51.50569,
    "lon": -2.64882
  },
  "bstajtm": {
    "stop_code": "bstajtm",
    "stop_name": "Sunny Hill",
    "ward_name": "Avonmouth and Lawrence Weston",
    "ward_code": "E05010886",
    "area": "Bristol",
    "lat": 51.49154,
    "lon": -2.6483
  },
  "bstajwa": {
    "stop_code": "bstajwa",
    "stop_name": "Roman Way",
    "ward_name": "Stoke Bishop",
    "ward_code": "E05010916",
    "area": "Bristol",
    "lat": 51.47878,
    "lon": -2.64803
  },
  "bstajwd": {
    "stop_code": "bstajwd",
    "stop_name": "Roman Way",
    "ward_name": "Stoke Bishop",
    "ward_code": "E05010916",
    "area": "Bristol",
    "lat": 51.47867,
    "lon": -2.64776
  },
  "bstajwg": {
    "stop_code": "bstajwg",
    "stop_name": "Chapel Lane",
    "ward_name": "Avonmouth and Lawrence Weston",
    "ward_code": "E05010886",
    "area": "Bristol",
    "lat": 51.50551,
    "lon": -2.64808
  },
  "bstajwj": {
    "stop_code": "bstajwj",
    "stop_name": "Sea Mills Square",
    "ward_name": "Stoke Bishop",
    "ward_code": "E05010916",
    "area": "Bristol",
    "lat": 51.4879,
    "lon": -2.64754
  },
  "bstamag": {
    "stop_code": "bstamag",
    "stop_name": "Musgrove Close",
    "ward_name": "Avonmouth and Lawrence Weston",
    "ward_code": "E05010886",
    "area": "Bristol",
    "lat": 51.50528,
    "lon": -2.64566
  },
  "bstamda": {
    "stop_code": "bstamda",
    "stop_name": "Coombe Dale",
    "ward_name": "Avonmouth and Lawrence Weston",
    "ward_code": "E05010886",
    "area": "Bristol",
    "lat": 51.49213,
    "lon": -2.64374
  },
  "bstamdj": {
    "stop_code": "bstamdj",
    "stop_name": "De Clifford Road",
    "ward_name": "Avonmouth and Lawrence Weston",
    "ward_code": "E05010886",
    "area": "Bristol",
    "lat": 51.50517,
    "lon": -2.64312
  },
  "bstamdm": {
    "stop_code": "bstamdm",
    "stop_name": "The Dingle",
    "ward_name": "Avonmouth and Lawrence Weston",
    "ward_code": "E05010886",
    "area": "Bristol",
    "lat": 51.49218,
    "lon": -2.64282
  },
  "bstamdw": {
    "stop_code": "bstamdw",
    "stop_name": "De Clifford Road",
    "ward_name": "Avonmouth and Lawrence Weston",
    "ward_code": "E05010886",
    "area": "Bristol",
    "lat": 51.50432,
    "lon": -2.64241
  },
  "bstamga": {
    "stop_code": "bstamga",
    "stop_name": "Sea Mills Lane",
    "ward_name": "Stoke Bishop",
    "ward_code": "E05010916",
    "area": "Bristol",
    "lat": 51.4863,
    "lon": -2.64118
  },
  "bstamgd": {
    "stop_code": "bstamgd",
    "stop_name": "Sea Mills Lane",
    "ward_name": "Stoke Bishop",
    "ward_code": "E05010916",
    "area": "Bristol",
    "lat": 51.48623,
    "lon": -2.64124
  },
  "bstamgm": {
    "stop_code": "bstamgm",
    "stop_name": "Coombe Lane",
    "ward_name": "Stoke Bishop",
    "ward_code": "E05010916",
    "area": "Bristol",
    "lat": 51.49155,
    "lon": -2.6399
  },
  "bstamgp": {
    "stop_code": "bstamgp",
    "stop_name": "Coombe Lane",
    "ward_name": "Stoke Bishop",
    "ward_code": "E05010916",
    "area": "Bristol",
    "lat": 51.49205,
    "lon": -2.6387
  },
  "bstamgt": {
    "stop_code": "bstamgt",
    "stop_name": "Cedar Park",
    "ward_name": "Stoke Bishop",
    "ward_code": "E05010916",
    "area": "Bristol",
    "lat": 51.48523,
    "lon": -2.63843
  },
  "bstamgw": {
    "stop_code": "bstamgw",
    "stop_name": "Cedar Park",
    "ward_name": "Stoke Bishop",
    "ward_code": "E05010916",
    "area": "Bristol",
    "lat": 51.48525,
    "lon": -2.63806
  },
  "bstamjd": {
    "stop_code": "bstamjd",
    "stop_name": "Windmill Lane",
    "ward_name": "Henbury and Brentry",
    "ward_code": "E05010901",
    "area": "Bristol",
    "lat": 51.51002,
    "lon": -2.63752
  },
  "bstamjm": {
    "stop_code": "bstamjm",
    "stop_name": "Rayleigh Road",
    "ward_name": "Stoke Bishop",
    "ward_code": "E05010916",
    "area": "Bristol",
    "lat": 51.49042,
    "lon": -2.63611
  },
  "bstamjt": {
    "stop_code": "bstamjt",
    "stop_name": "Queens Gate",
    "ward_name": "Stoke Bishop",
    "ward_code": "E05010916",
    "area": "Bristol",
    "lat": 51.48424,
    "lon": -2.63515
  },
  "bstamjw": {
    "stop_code": "bstamjw",
    "stop_name": "Rayleigh Road",
    "ward_name": "Westbury-on-Trym and Henleaze",
    "ward_code": "E05010917",
    "area": "Bristol",
    "lat": 51.49011,
    "lon": -2.63553
  },
  "bstampd": {
    "stop_code": "bstampd",
    "stop_name": "Old Sneed Road",
    "ward_name": "Stoke Bishop",
    "ward_code": "E05010916",
    "area": "Bristol",
    "lat": 51.48028,
    "lon": -2.63456
  },
  "bstampg": {
    "stop_code": "bstampg",
    "stop_name": "Blaise Castle",
    "ward_name": "Henbury and Brentry",
    "ward_code": "E05010901",
    "area": "Bristol",
    "lat": 51.50604,
    "lon": -2.6348
  },
  "bstampj": {
    "stop_code": "bstampj",
    "stop_name": "Queens Gate",
    "ward_name": "Stoke Bishop",
    "ward_code": "E05010916",
    "area": "Bristol",
    "lat": 51.48409,
    "lon": -2.63431
  },
  "bstampm": {
    "stop_code": "bstampm",
    "stop_name": "Old Sneed Road",
    "ward_name": "Stoke Bishop",
    "ward_code": "E05010916",
    "area": "Bristol",
    "lat": 51.47952,
    "lon": -2.63415
  },
  "bstampt": {
    "stop_code": "bstampt",
    "stop_name": "Hallen Road",
    "ward_name": "Henbury and Brentry",
    "ward_code": "E05010901",
    "area": "Bristol",
    "lat": 51.50877,
    "lon": -2.63422
  },
  "bstampw": {
    "stop_code": "bstampw",
    "stop_name": "Hollybush Lane",
    "ward_name": "Stoke Bishop",
    "ward_code": "E05010916",
    "area": "Bristol",
    "lat": 51.48327,
    "lon": -2.63339
  },
  "bstamta": {
    "stop_code": "bstamta",
    "stop_name": "Blaise Castle",
    "ward_name": "Henbury and Brentry",
    "ward_code": "E05010901",
    "area": "Bristol",
    "lat": 51.50629,
    "lon": -2.63361
  },
  "bstamtd": {
    "stop_code": "bstamtd",
    "stop_name": "The Avenue",
    "ward_name": "Stoke Bishop",
    "ward_code": "E05010916",
    "area": "Bristol",
    "lat": 51.4744,
    "lon": -2.63274
  },
  "bstamtj": {
    "stop_code": "bstamtj",
    "stop_name": "Stoke Hill",
    "ward_name": "Stoke Bishop",
    "ward_code": "E05010916",
    "area": "Bristol",
    "lat": 51.47635,
    "lon": -2.63242
  },
  "bstamtm": {
    "stop_code": "bstamtm",
    "stop_name": "Red House Lane",
    "ward_name": "Westbury-on-Trym and Henleaze",
    "ward_code": "E05010917",
    "area": "Bristol",
    "lat": 51.48772,
    "lon": -2.6325
  },
  "bstamtp": {
    "stop_code": "bstamtp",
    "stop_name": "Church Avenue",
    "ward_name": "Stoke Bishop",
    "ward_code": "E05010916",
    "area": "Bristol",
    "lat": 51.4769,
    "lon": -2.63215
  },
  "bstamtw": {
    "stop_code": "bstamtw",
    "stop_name": "Church Avenue",
    "ward_name": "Stoke Bishop",
    "ward_code": "E05010916",
    "area": "Bristol",
    "lat": 51.47702,
    "lon": -2.63215
  },
  "bstamwa": {
    "stop_code": "bstamwa",
    "stop_name": "Red House Lane",
    "ward_name": "Westbury-on-Trym and Henleaze",
    "ward_code": "E05010917",
    "area": "Bristol",
    "lat": 51.48736,
    "lon": -2.63185
  },
  "bstamwd": {
    "stop_code": "bstamwd",
    "stop_name": "The Avenue",
    "ward_name": "Stoke Bishop",
    "ward_code": "E05010916",
    "area": "Bristol",
    "lat": 51.47379,
    "lon": -2.63145
  },
  "bstamwj": {
    "stop_code": "bstamwj",
    "stop_name": "Kings Head Lane",
    "ward_name": "Bishopsworth",
    "ward_code": "E05010889",
    "area": "Bristol",
    "lat": 51.42123,
    "lon": -2.63016
  },
  "bstamwm": {
    "stop_code": "bstamwm",
    "stop_name": "Avonmouth Way",
    "ward_name": "Henbury and Brentry",
    "ward_code": "E05010901",
    "area": "Bristol",
    "lat": 51.50789,
    "lon": -2.63115
  },
  "bstamwt": {
    "stop_code": "bstamwt",
    "stop_name": "Avonmouth Way",
    "ward_name": "Henbury and Brentry",
    "ward_code": "E05010901",
    "area": "Bristol",
    "lat": 51.50777,
    "lon": -2.63105
  },
  "bstapad": {
    "stop_code": "bstapad",
    "stop_name": "Turtlegate Avenue",
    "ward_name": "Hartcliffe and Withywood",
    "ward_code": "E05010900",
    "area": "Bristol",
    "lat": 51.40736,
    "lon": -2.62903
  },
  "bstapag": {
    "stop_code": "bstapag",
    "stop_name": "Turtlegate Avenue",
    "ward_name": "Hartcliffe and Withywood",
    "ward_code": "E05010900",
    "area": "Bristol",
    "lat": 51.40748,
    "lon": -2.62894
  },
  "bstapaj": {
    "stop_code": "bstapaj",
    "stop_name": "Stoke Lane",
    "ward_name": "Stoke Bishop",
    "ward_code": "E05010916",
    "area": "Bristol",
    "lat": 51.48444,
    "lon": -2.62963
  },
  "bstapam": {
    "stop_code": "bstapam",
    "stop_name": "Sandburrows Road",
    "ward_name": "Hartcliffe and Withywood",
    "ward_code": "E05010900",
    "area": "Bristol",
    "lat": 51.41483,
    "lon": -2.62859
  },
  "bstapat": {
    "stop_code": "bstapat",
    "stop_name": "Stoke Lane",
    "ward_name": "Westbury-on-Trym and Henleaze",
    "ward_code": "E05010917",
    "area": "Bristol",
    "lat": 51.48429,
    "lon": -2.62932
  },
  "bstapaw": {
    "stop_code": "bstapaw",
    "stop_name": "Marissal Road",
    "ward_name": "Henbury and Brentry",
    "ward_code": "E05010901",
    "area": "Bristol",
    "lat": 51.51137,
    "lon": -2.62944
  },
  "bstapdg": {
    "stop_code": "bstapdg",
    "stop_name": "Marissal Road",
    "ward_name": "Henbury and Brentry",
    "ward_code": "E05010901",
    "area": "Bristol",
    "lat": 51.51145,
    "lon": -2.6293
  },
  "bstapdj": {
    "stop_code": "bstapdj",
    "stop_name": "The Pavillions",
    "ward_name": "Bishopsworth",
    "ward_code": "E05010889",
    "area": "Bristol",
    "lat": 51.42188,
    "lon": -2.6282
  },
  "bstapdm": {
    "stop_code": "bstapdm",
    "stop_name": "Clanage Road",
    "ward_name": "Bedminster",
    "ward_code": "E05010887",
    "area": "Bristol",
    "lat": 51.44365,
    "lon": -2.62838
  },
  "bstapdp": {
    "stop_code": "bstapdp",
    "stop_name": "Langley Crescent",
    "ward_name": "Bedminster",
    "ward_code": "E05010887",
    "area": "Bristol",
    "lat": 51.42986,
    "lon": -2.62827
  },
  "bstapdw": {
    "stop_code": "bstapdw",
    "stop_name": "Kings Head Lane",
    "ward_name": "Bishopsworth",
    "ward_code": "E05010889",
    "area": "Bristol",
    "lat": 51.42106,
    "lon": -2.62807
  },
  "bstapgd": {
    "stop_code": "bstapgd",
    "stop_name": "Clanage Road",
    "ward_name": "Bedminster",
    "ward_code": "E05010887",
    "area": "Bristol",
    "lat": 51.44378,
    "lon": -2.6282
  },
  "bstapgj": {
    "stop_code": "bstapgj",
    "stop_name": "Sherrin Way",
    "ward_name": "Hartcliffe and Withywood",
    "ward_code": "E05010900",
    "area": "Bristol",
    "lat": 51.40603,
    "lon": -2.62782
  },
  "bstapgm": {
    "stop_code": "bstapgm",
    "stop_name": "Dancey Mead",
    "ward_name": "Bishopsworth",
    "ward_code": "E05010889",
    "area": "Bristol",
    "lat": 51.41811,
    "lon": -2.62779
  },
  "bstapgp": {
    "stop_code": "bstapgp",
    "stop_name": "The Pavillions",
    "ward_name": "Bishopsworth",
    "ward_code": "E05010889",
    "area": "Bristol",
    "lat": 51.42215,
    "lon": -2.62777
  },
  "bstapgt": {
    "stop_code": "bstapgt",
    "stop_name": "Shuter Road",
    "ward_name": "Hartcliffe and Withywood",
    "ward_code": "E05010900",
    "area": "Bristol",
    "lat": 51.41028,
    "lon": -2.62755
  },
  "bstapgw": {
    "stop_code": "bstapgw",
    "stop_name": "Shuter Road",
    "ward_name": "Hartcliffe and Withywood",
    "ward_code": "E05010900",
    "area": "Bristol",
    "lat": 51.41053,
    "lon": -2.62747
  },
  "bstapjd": {
    "stop_code": "bstapjd",
    "stop_name": "Kings Head Lane",
    "ward_name": "Bishopsworth",
    "ward_code": "E05010889",
    "area": "Bristol",
    "lat": 51.42089,
    "lon": -2.62747
  },
  "bstapjg": {
    "stop_code": "bstapjg",
    "stop_name": "Dancey Mead",
    "ward_name": "Bishopsworth",
    "ward_code": "E05010889",
    "area": "Bristol",
    "lat": 51.41885,
    "lon": -2.6274
  },
  "bstapjw": {
    "stop_code": "bstapjw",
    "stop_name": "The Salutation",
    "ward_name": "Henbury and Brentry",
    "ward_code": "E05010901",
    "area": "Bristol",
    "lat": 51.50685,
    "lon": -2.62829
  },
  "bstapma": {
    "stop_code": "bstapma",
    "stop_name": "Rockleaze Road",
    "ward_name": "Stoke Bishop",
    "ward_code": "E05010916",
    "area": "Bristol",
    "lat": 51.47265,
    "lon": -2.6276
  },
  "bstapmt": {
    "stop_code": "bstapmt",
    "stop_name": "Tormarton Crescent",
    "ward_name": "Henbury and Brentry",
    "ward_code": "E05010901",
    "area": "Bristol",
    "lat": 51.51296,
    "lon": -2.62801
  },
  "bstapta": {
    "stop_code": "bstapta",
    "stop_name": "Highridge Green",
    "ward_name": "Hartcliffe and Withywood",
    "ward_code": "E05010900",
    "area": "Bristol",
    "lat": 51.41208,
    "lon": -2.62638
  },
  "bstaptj": {
    "stop_code": "bstaptj",
    "stop_name": "Tormarton Crescent",
    "ward_name": "Henbury and Brentry",
    "ward_code": "E05010901",
    "area": "Bristol",
    "lat": 51.51333,
    "lon": -2.62763
  },
  "bstaptm": {
    "stop_code": "bstaptm",
    "stop_name": "Sherrin Way",
    "ward_name": "Hartcliffe and Withywood",
    "ward_code": "E05010900",
    "area": "Bristol",
    "lat": 51.40636,
    "lon": -2.62613
  },
  "bstapwa": {
    "stop_code": "bstapwa",
    "stop_name": "Percival Road",
    "ward_name": "Clifton",
    "ward_code": "E05010893",
    "area": "Bristol",
    "lat": 51.45823,
    "lon": -2.62624
  },
  "bstapwm": {
    "stop_code": "bstapwm",
    "stop_name": "Bridge Valley Road",
    "ward_name": "Stoke Bishop",
    "ward_code": "E05010916",
    "area": "Bristol",
    "lat": 51.4621,
    "lon": -2.62623
  },
  "bstatad": {
    "stop_code": "bstatad",
    "stop_name": "The Salutation",
    "ward_name": "Henbury and Brentry",
    "ward_code": "E05010901",
    "area": "Bristol",
    "lat": 51.50654,
    "lon": -2.62678
  },
  "bstatap": {
    "stop_code": "bstatap",
    "stop_name": "Highridge Green",
    "ward_name": "Hartcliffe and Withywood",
    "ward_code": "E05010900",
    "area": "Bristol",
    "lat": 51.41209,
    "lon": -2.62502
  },
  "bstatat": {
    "stop_code": "bstatat",
    "stop_name": "Winterstoke Road",
    "ward_name": "Bedminster",
    "ward_code": "E05010887",
    "area": "Bristol",
    "lat": 51.44065,
    "lon": -2.62526
  },
  "bstatda": {
    "stop_code": "bstatda",
    "stop_name": "Marguerite Road",
    "ward_name": "Bishopsworth",
    "ward_code": "E05010889",
    "area": "Bristol",
    "lat": 51.42331,
    "lon": -2.62495
  },
  "bstatdm": {
    "stop_code": "bstatdm",
    "stop_name": "Downleaze",
    "ward_name": "Stoke Bishop",
    "ward_code": "E05010916",
    "area": "Bristol",
    "lat": 51.47398,
    "lon": -2.62531
  },
  "bstatdp": {
    "stop_code": "bstatdp",
    "stop_name": "Rylestone Grove",
    "ward_name": "Stoke Bishop",
    "ward_code": "E05010916",
    "area": "Bristol",
    "lat": 51.48248,
    "lon": -2.62523
  },
  "bstatdw": {
    "stop_code": "bstatdw",
    "stop_name": "Rylestone Grove",
    "ward_name": "Stoke Bishop",
    "ward_code": "E05010916",
    "area": "Bristol",
    "lat": 51.4823,
    "lon": -2.62516
  },
  "bstatgd": {
    "stop_code": "bstatgd",
    "stop_name": "Marguerite Road",
    "ward_name": "Bishopsworth",
    "ward_code": "E05010889",
    "area": "Bristol",
    "lat": 51.42372,
    "lon": -2.62424
  },
  "bstatgp": {
    "stop_code": "bstatgp",
    "stop_name": "College Road",
    "ward_name": "Stoke Bishop",
    "ward_code": "E05010916",
    "area": "Bristol",
    "lat": 51.46356,
    "lon": -2.6244
  },
  "bstatmj": {
    "stop_code": "bstatmj",
    "stop_name": "Queen's Road",
    "ward_name": "Hartcliffe and Withywood",
    "ward_code": "E05010900",
    "area": "Bristol",
    "lat": 51.40696,
    "lon": -2.62269
  },
  "bstatmw": {
    "stop_code": "bstatmw",
    "stop_name": "Langford Road",
    "ward_name": "Bishopsworth",
    "ward_code": "E05010889",
    "area": "Bristol",
    "lat": 51.42443,
    "lon": -2.62248
  },
  "bstatpa": {
    "stop_code": "bstatpa",
    "stop_name": "Crow Lane Lay-by",
    "ward_name": "Henbury and Brentry",
    "ward_code": "E05010901",
    "area": "Bristol",
    "lat": 51.50865,
    "lon": -2.62324
  },
  "bstatpt": {
    "stop_code": "bstatpt",
    "stop_name": "Crow Lane Lay-by",
    "ward_name": "Henbury and Brentry",
    "ward_code": "E05010901",
    "area": "Bristol",
    "lat": 51.50839,
    "lon": -2.62318
  },
  "bstatpw": {
    "stop_code": "bstatpw",
    "stop_name": "Langford Road",
    "ward_name": "Bishopsworth",
    "ward_code": "E05010889",
    "area": "Bristol",
    "lat": 51.42488,
    "lon": -2.62184
  },
  "bstatwg": {
    "stop_code": "bstatwg",
    "stop_name": "Wills Hall",
    "ward_name": "Stoke Bishop",
    "ward_code": "E05010916",
    "area": "Bristol",
    "lat": 51.48032,
    "lon": -2.6221
  },
  "bstatwj": {
    "stop_code": "bstatwj",
    "stop_name": "Church Road",
    "ward_name": "Hartcliffe and Withywood",
    "ward_code": "E05010900",
    "area": "Bristol",
    "lat": 51.41246,
    "lon": -2.62115
  },
  "bstatwt": {
    "stop_code": "bstatwt",
    "stop_name": "Smyth Road",
    "ward_name": "Bedminster",
    "ward_code": "E05010887",
    "area": "Bristol",
    "lat": 51.437,
    "lon": -2.62077
  },
  "bstawad": {
    "stop_code": "bstawad",
    "stop_name": "Queen's Road",
    "ward_name": "Hartcliffe and Withywood",
    "ward_code": "E05010900",
    "area": "Bristol",
    "lat": 51.4071,
    "lon": -2.62058
  },
  "bstawam": {
    "stop_code": "bstawam",
    "stop_name": "The Avenue",
    "ward_name": "Stoke Bishop",
    "ward_code": "E05010916",
    "area": "Bristol",
    "lat": 51.46554,
    "lon": -2.6213
  },
  "bstawap": {
    "stop_code": "bstawap",
    "stop_name": "Smyth Road",
    "ward_name": "Bedminster",
    "ward_code": "E05010887",
    "area": "Bristol",
    "lat": 51.4371,
    "lon": -2.62064
  },
  "bstawaw": {
    "stop_code": "bstawaw",
    "stop_name": "Wills Hall",
    "ward_name": "Stoke Bishop",
    "ward_code": "E05010916",
    "area": "Bristol",
    "lat": 51.48012,
    "lon": -2.62147
  },
  "bstawda": {
    "stop_code": "bstawda",
    "stop_name": "Church Road",
    "ward_name": "Hartcliffe and Withywood",
    "ward_code": "E05010900",
    "area": "Bristol",
    "lat": 51.41317,
    "lon": -2.6205
  },
  "bstawdt": {
    "stop_code": "bstawdt",
    "stop_name": "Christ Church",
    "ward_name": "Clifton",
    "ward_code": "E05010893",
    "area": "Bristol",
    "lat": 51.45718,
    "lon": -2.62047
  },
  "bstawgd": {
    "stop_code": "bstawgd",
    "stop_name": "Westbury Village",
    "ward_name": "Westbury-on-Trym and Henleaze",
    "ward_code": "E05010917",
    "area": "Bristol",
    "lat": 51.49306,
    "lon": -2.61989
  },
  "bstawgp": {
    "stop_code": "bstawgp",
    "stop_name": "Henbury Road",
    "ward_name": "Westbury-on-Trym and Henleaze",
    "ward_code": "E05010917",
    "area": "Bristol",
    "lat": 51.49628,
    "lon": -2.62071
  },
  "bstawgt": {
    "stop_code": "bstawgt",
    "stop_name": "Winford Grove",
    "ward_name": "Bishopsworth",
    "ward_code": "E05010889",
    "area": "Bristol",
    "lat": 51.42584,
    "lon": -2.61951
  },
  "bstawjd": {
    "stop_code": "bstawjd",
    "stop_name": "Hendre Road",
    "ward_name": "Bedminster",
    "ward_code": "E05010887",
    "area": "Bristol",
    "lat": 51.43545,
    "lon": -2.61939
  },
  "bstawjm": {
    "stop_code": "bstawjm",
    "stop_name": "Clifton Village",
    "ward_name": "Clifton",
    "ward_code": "E05010893",
    "area": "Bristol",
    "lat": 51.45561,
    "lon": -2.61947
  },
  "bstawmd": {
    "stop_code": "bstawmd",
    "stop_name": "Westbury Village",
    "ward_name": "Westbury-on-Trym and Henleaze",
    "ward_code": "E05010917",
    "area": "Bristol",
    "lat": 51.493,
    "lon": -2.61974
  },
  "bstawmg": {
    "stop_code": "bstawmg",
    "stop_name": "Downfield Road",
    "ward_name": "Clifton Down",
    "ward_code": "E05010894",
    "area": "Bristol",
    "lat": 51.46561,
    "lon": -2.6194
  },
  "bstawmp": {
    "stop_code": "bstawmp",
    "stop_name": "Falcondale Walk",
    "ward_name": "Westbury-on-Trym and Henleaze",
    "ward_code": "E05010917",
    "area": "Bristol",
    "lat": 51.49773,
    "lon": -2.61792
  },
  "bstawmt": {
    "stop_code": "bstawmt",
    "stop_name": "Clifton Village",
    "ward_name": "Clifton",
    "ward_code": "E05010893",
    "area": "Bristol",
    "lat": 51.45525,
    "lon": -2.61909
  },
  "bstawmw": {
    "stop_code": "bstawmw",
    "stop_name": "Winford Grove",
    "ward_name": "Bishopsworth",
    "ward_code": "E05010889",
    "area": "Bristol",
    "lat": 51.42636,
    "lon": -2.61868
  },
  "bstawpa": {
    "stop_code": "bstawpa",
    "stop_name": "St Peter's Church",
    "ward_name": "Bishopsworth",
    "ward_code": "E05010889",
    "area": "Bristol",
    "lat": 51.41515,
    "lon": -2.61857
  },
  "bstawpd": {
    "stop_code": "bstawpd",
    "stop_name": "Lyppincourt Road",
    "ward_name": "Henbury and Brentry",
    "ward_code": "E05010901",
    "area": "Bristol",
    "lat": 51.51321,
    "lon": -2.61977
  },
  "bstawta": {
    "stop_code": "bstawta",
    "stop_name": "Brentry Roundabout",
    "ward_name": "Henbury and Brentry",
    "ward_code": "E05010901",
    "area": "Bristol",
    "lat": 51.5095,
    "lon": -2.61952
  },
  "bstawtg": {
    "stop_code": "bstawtg",
    "stop_name": "Brentry Roundabout",
    "ward_name": "Henbury and Brentry",
    "ward_code": "E05010901",
    "area": "Bristol",
    "lat": 51.50944,
    "lon": -2.61947
  },
  "bstawtm": {
    "stop_code": "bstawtm",
    "stop_name": "Lansdown Road",
    "ward_name": "Clifton",
    "ward_code": "E05010893",
    "area": "Bristol",
    "lat": 51.4584,
    "lon": -2.61811
  },
  "bstawtp": {
    "stop_code": "bstawtp",
    "stop_name": "Lyppincourt Road",
    "ward_name": "Henbury and Brentry",
    "ward_code": "E05010901",
    "area": "Bristol",
    "lat": 51.51262,
    "lon": -2.61947
  },
  "bstawtw": {
    "stop_code": "bstawtw",
    "stop_name": "St Peter's Church",
    "ward_name": "Hartcliffe and Withywood",
    "ward_code": "E05010900",
    "area": "Bristol",
    "lat": 51.41557,
    "lon": -2.61793
  },
  "bstdada": {
    "stop_code": "bstdada",
    "stop_name": "Merchants Road",
    "ward_name": "Hotwells and Harbourside",
    "ward_code": "E05010905",
    "area": "Bristol",
    "lat": 51.44953,
    "lon": -2.61819
  },
  "bstdadg": {
    "stop_code": "bstdadg",
    "stop_name": "Durnford Street",
    "ward_name": "Southville",
    "ward_code": "E05010914",
    "area": "Bristol",
    "lat": 51.44128,
    "lon": -2.61829
  },
  "bstdadj": {
    "stop_code": "bstdadj",
    "stop_name": "Vicarage Road",
    "ward_name": "Bishopsworth",
    "ward_code": "E05010889",
    "area": "Bristol",
    "lat": 51.41771,
    "lon": -2.61769
  },
  "bstdadp": {
    "stop_code": "bstdadp",
    "stop_name": "Vicarage Road",
    "ward_name": "Bishopsworth",
    "ward_code": "E05010889",
    "area": "Bristol",
    "lat": 51.41817,
    "lon": -2.61732
  },
  "bstdadt": {
    "stop_code": "bstdadt",
    "stop_name": "Newland Drive",
    "ward_name": "Hartcliffe and Withywood",
    "ward_code": "E05010900",
    "area": "Bristol",
    "lat": 51.40587,
    "lon": -2.6171
  },
  "bstdadw": {
    "stop_code": "bstdadw",
    "stop_name": "Guthrie Road",
    "ward_name": "Clifton Down",
    "ward_code": "E05010894",
    "area": "Bristol",
    "lat": 51.46393,
    "lon": -2.61788
  },
  "bstdaga": {
    "stop_code": "bstdaga",
    "stop_name": "Frayne Road",
    "ward_name": "Southville",
    "ward_code": "E05010914",
    "area": "Bristol",
    "lat": 51.44278,
    "lon": -2.61752
  },
  "bstdagd": {
    "stop_code": "bstdagd",
    "stop_name": "Hendre Road",
    "ward_name": "Bedminster",
    "ward_code": "E05010887",
    "area": "Bristol",
    "lat": 51.4349,
    "lon": -2.61716
  },
  "bstdagj": {
    "stop_code": "bstdagj",
    "stop_name": "Durnford Street",
    "ward_name": "Southville",
    "ward_code": "E05010914",
    "area": "Bristol",
    "lat": 51.44052,
    "lon": -2.61707
  },
  "bstdagm": {
    "stop_code": "bstdagm",
    "stop_name": "Newland Drive",
    "ward_name": "Hartcliffe and Withywood",
    "ward_code": "E05010900",
    "area": "Bristol",
    "lat": 51.40577,
    "lon": -2.61663
  },
  "bstdagt": {
    "stop_code": "bstdagt",
    "stop_name": "Westbury Road",
    "ward_name": "Stoke Bishop",
    "ward_code": "E05010916",
    "area": "Bristol",
    "lat": 51.47948,
    "lon": -2.61757
  },
  "bstdagw": {
    "stop_code": "bstdagw",
    "stop_name": "Wrington Crescent",
    "ward_name": "Bishopsworth",
    "ward_code": "E05010889",
    "area": "Bristol",
    "lat": 51.42119,
    "lon": -2.61651
  },
  "bstdaja": {
    "stop_code": "bstdaja",
    "stop_name": "Falcondale Walk",
    "ward_name": "Westbury-on-Trym and Henleaze",
    "ward_code": "E05010917",
    "area": "Bristol",
    "lat": 51.49787,
    "lon": -2.61726
  },
  "bstdajd": {
    "stop_code": "bstdajd",
    "stop_name": "Black Boy Hill",
    "ward_name": "Stoke Bishop",
    "ward_code": "E05010916",
    "area": "Bristol",
    "lat": 51.47111,
    "lon": -2.61705
  },
  "bstdajg": {
    "stop_code": "bstdajg",
    "stop_name": "Trinity Church",
    "ward_name": "Clifton",
    "ward_code": "E05010893",
    "area": "Bristol",
    "lat": 51.45049,
    "lon": -2.61925
  },
  "bstdajw": {
    "stop_code": "bstdajw",
    "stop_name": "Westbury Road",
    "ward_name": "Westbury-on-Trym and Henleaze",
    "ward_code": "E05010917",
    "area": "Bristol",
    "lat": 51.48,
    "lon": -2.61679
  },
  "bstdamj": {
    "stop_code": "bstdamj",
    "stop_name": "Southfield Road",
    "ward_name": "Westbury-on-Trym and Henleaze",
    "ward_code": "E05010917",
    "area": "Bristol",
    "lat": 51.48977,
    "lon": -2.61679
  },
  "bstdamp": {
    "stop_code": "bstdamp",
    "stop_name": "Wrington Crescent",
    "ward_name": "Bishopsworth",
    "ward_code": "E05010889",
    "area": "Bristol",
    "lat": 51.42191,
    "lon": -2.6159
  },
  "bstdamw": {
    "stop_code": "bstdamw",
    "stop_name": "Southfield Road",
    "ward_name": "Westbury-on-Trym and Henleaze",
    "ward_code": "E05010917",
    "area": "Bristol",
    "lat": 51.4906,
    "lon": -2.61677
  },
  "bstdapa": {
    "stop_code": "bstdapa",
    "stop_name": "Henleaze Gardens",
    "ward_name": "Westbury-on-Trym and Henleaze",
    "ward_code": "E05010917",
    "area": "Bristol",
    "lat": 51.48361,
    "lon": -2.6166
  },
  "bstdapd": {
    "stop_code": "bstdapd",
    "stop_name": "Alma Road",
    "ward_name": "Clifton Down",
    "ward_code": "E05010894",
    "area": "Bristol",
    "lat": 51.46161,
    "lon": -2.61637
  },
  "bstdapg": {
    "stop_code": "bstdapg",
    "stop_name": "Brecon Road",
    "ward_name": "Westbury-on-Trym and Henleaze",
    "ward_code": "E05010917",
    "area": "Bristol",
    "lat": 51.48707,
    "lon": -2.61685
  },
  "bstdapm": {
    "stop_code": "bstdapm",
    "stop_name": "Westbury Road",
    "ward_name": "Stoke Bishop",
    "ward_code": "E05010916",
    "area": "Bristol",
    "lat": 51.4789,
    "lon": -2.61673
  },
  "bstdapt": {
    "stop_code": "bstdapt",
    "stop_name": "Henleaze Gardens",
    "ward_name": "Westbury-on-Trym and Henleaze",
    "ward_code": "E05010917",
    "area": "Bristol",
    "lat": 51.48326,
    "lon": -2.61653
  },
  "bstdapw": {
    "stop_code": "bstdapw",
    "stop_name": "Durdham Park",
    "ward_name": "Stoke Bishop",
    "ward_code": "E05010916",
    "area": "Bristol",
    "lat": 51.47424,
    "lon": -2.61632
  },
  "bstdatd": {
    "stop_code": "bstdatd",
    "stop_name": "Brentry Hill",
    "ward_name": "Westbury-on-Trym and Henleaze",
    "ward_code": "E05010917",
    "area": "Bristol",
    "lat": 51.49956,
    "lon": -2.61662
  },
  "bstdatj": {
    "stop_code": "bstdatj",
    "stop_name": "Durdham Park",
    "ward_name": "Redland",
    "ward_code": "E05010909",
    "area": "Bristol",
    "lat": 51.4748,
    "lon": -2.6161
  },
  "bstdatm": {
    "stop_code": "bstdatm",
    "stop_name": "Brentry Lane",
    "ward_name": "Henbury and Brentry",
    "ward_code": "E05010901",
    "area": "Bristol",
    "lat": 51.50706,
    "lon": -2.61642
  },
  "bstdatp": {
    "stop_code": "bstdatp",
    "stop_name": "Perrycroft Road",
    "ward_name": "Hartcliffe and Withywood",
    "ward_code": "E05010900",
    "area": "Bristol",
    "lat": 51.41486,
    "lon": -2.61512
  },
  "bstdatw": {
    "stop_code": "bstdatw",
    "stop_name": "Black Boy Hill",
    "ward_name": "Stoke Bishop",
    "ward_code": "E05010916",
    "area": "Bristol",
    "lat": 51.47123,
    "lon": -2.61603
  },
  "bstdawa": {
    "stop_code": "bstdawa",
    "stop_name": "Brecon Road",
    "ward_name": "Westbury-on-Trym and Henleaze",
    "ward_code": "E05010917",
    "area": "Bristol",
    "lat": 51.48627,
    "lon": -2.61602
  },
  "bstdawg": {
    "stop_code": "bstdawg",
    "stop_name": "Westbury Road",
    "ward_name": "Westbury-on-Trym and Henleaze",
    "ward_code": "E05010917",
    "area": "Bristol",
    "lat": 51.47946,
    "lon": -2.61538
  },
  "bstdawm": {
    "stop_code": "bstdawm",
    "stop_name": "Cheddar Grove",
    "ward_name": "Bishopsworth",
    "ward_code": "E05010889",
    "area": "Bristol",
    "lat": 51.42403,
    "lon": -2.61491
  },
  "bstdawp": {
    "stop_code": "bstdawp",
    "stop_name": "Brentry Lane",
    "ward_name": "Henbury and Brentry",
    "ward_code": "E05010901",
    "area": "Bristol",
    "lat": 51.50694,
    "lon": -2.61614
  },
  "bstdawt": {
    "stop_code": "bstdawt",
    "stop_name": "Bishopsworth Road",
    "ward_name": "Bishopsworth",
    "ward_code": "E05010889",
    "area": "Bristol",
    "lat": 51.42841,
    "lon": -2.61491
  },
  "bstdgad": {
    "stop_code": "bstdgad",
    "stop_name": "Perrycroft Road",
    "ward_name": "Hartcliffe and Withywood",
    "ward_code": "E05010900",
    "area": "Bristol",
    "lat": 51.41477,
    "lon": -2.61471
  },
  "bstdgag": {
    "stop_code": "bstdgag",
    "stop_name": "The Ridgeway",
    "ward_name": "Westbury-on-Trym and Henleaze",
    "ward_code": "E05010917",
    "area": "Bristol",
    "lat": 51.50294,
    "lon": -2.61567
  },
  "bstdgaj": {
    "stop_code": "bstdgaj",
    "stop_name": "Cheddar Grove",
    "ward_name": "Bishopsworth",
    "ward_code": "E05010889",
    "area": "Bristol",
    "lat": 51.42424,
    "lon": -2.61467
  },
  "bstdgaw": {
    "stop_code": "bstdgaw",
    "stop_name": "Victoria Square",
    "ward_name": "Clifton",
    "ward_code": "E05010893",
    "area": "Bristol",
    "lat": 51.45544,
    "lon": -2.6151
  },
  "bstdgda": {
    "stop_code": "bstdgda",
    "stop_name": "Black Boy Hill",
    "ward_name": "Clifton Down",
    "ward_code": "E05010894",
    "area": "Bristol",
    "lat": 51.47069,
    "lon": -2.61515
  },
  "bstdgdg": {
    "stop_code": "bstdgdg",
    "stop_name": "The Ridgeway",
    "ward_name": "Henbury and Brentry",
    "ward_code": "E05010901",
    "area": "Bristol",
    "lat": 51.50312,
    "lon": -2.6153
  },
  "bstdgdj": {
    "stop_code": "bstdgdj",
    "stop_name": "Greenway Bush Lane",
    "ward_name": "Southville",
    "ward_code": "E05010914",
    "area": "Bristol",
    "lat": 51.44257,
    "lon": -2.61431
  },
  "bstdgdp": {
    "stop_code": "bstdgdp",
    "stop_name": "Greenway Bush Lane",
    "ward_name": "Southville",
    "ward_code": "E05010914",
    "area": "Bristol",
    "lat": 51.4424,
    "lon": -2.61416
  },
  "bstdgdt": {
    "stop_code": "bstdgdt",
    "stop_name": "St Peters Rise",
    "ward_name": "Bishopsworth",
    "ward_code": "E05010889",
    "area": "Bristol",
    "lat": 51.41975,
    "lon": -2.61413
  },
  "bstdgdw": {
    "stop_code": "bstdgdw",
    "stop_name": "Lulsgate Road",
    "ward_name": "Bishopsworth",
    "ward_code": "E05010889",
    "area": "Bristol",
    "lat": 51.42666,
    "lon": -2.61394
  },
  "bstdgja": {
    "stop_code": "bstdgja",
    "stop_name": "Fair Furlong",
    "ward_name": "Hartcliffe and Withywood",
    "ward_code": "E05010900",
    "area": "Bristol",
    "lat": 51.40546,
    "lon": -2.61341
  },
  "bstdgjd": {
    "stop_code": "bstdgjd",
    "stop_name": "Marlwood Drive",
    "ward_name": "Henbury and Brentry",
    "ward_code": "E05010901",
    "area": "Bristol",
    "lat": 51.50999,
    "lon": -2.61481
  },
  "bstdgjg": {
    "stop_code": "bstdgjg",
    "stop_name": "Students Union",
    "ward_name": "Clifton",
    "ward_code": "E05010893",
    "area": "Bristol",
    "lat": 51.45671,
    "lon": -2.61372
  },
  "bstdgjp": {
    "stop_code": "bstdgjp",
    "stop_name": "Bishopsworth Road",
    "ward_name": "Bishopsworth",
    "ward_code": "E05010889",
    "area": "Bristol",
    "lat": 51.42761,
    "lon": -2.61351
  },
  "bstdgjt": {
    "stop_code": "bstdgjt",
    "stop_name": "Bishopsworth Road",
    "ward_name": "Bishopsworth",
    "ward_code": "E05010889",
    "area": "Bristol",
    "lat": 51.42993,
    "lon": -2.61345
  },
  "bstdgmg": {
    "stop_code": "bstdgmg",
    "stop_name": "Marsh Lane",
    "ward_name": "Bedminster",
    "ward_code": "E05010887",
    "area": "Bristol",
    "lat": 51.43406,
    "lon": -2.61267
  },
  "bstdgmp": {
    "stop_code": "bstdgmp",
    "stop_name": "Hotwell Road",
    "ward_name": "Hotwells and Harbourside",
    "ward_code": "E05010905",
    "area": "Bristol",
    "lat": 51.4496,
    "lon": -2.61353
  },
  "bstdgmt": {
    "stop_code": "bstdgmt",
    "stop_name": "Hotwell Road",
    "ward_name": "Hotwells and Harbourside",
    "ward_code": "E05010905",
    "area": "Bristol",
    "lat": 51.4495,
    "lon": -2.61317
  },
  "bstdgmw": {
    "stop_code": "bstdgmw",
    "stop_name": "Marlwood Drive",
    "ward_name": "Henbury and Brentry",
    "ward_code": "E05010901",
    "area": "Bristol",
    "lat": 51.50997,
    "lon": -2.61431
  },
  "bstdgpg": {
    "stop_code": "bstdgpg",
    "stop_name": "St. Peters Rise",
    "ward_name": "Bishopsworth",
    "ward_code": "E05010889",
    "area": "Bristol",
    "lat": 51.42055,
    "lon": -2.61276
  },
  "bstdgpj": {
    "stop_code": "bstdgpj",
    "stop_name": "Fair Furlong",
    "ward_name": "Hartcliffe and Withywood",
    "ward_code": "E05010900",
    "area": "Bristol",
    "lat": 51.40541,
    "lon": -2.61258
  },
  "bstdgpt": {
    "stop_code": "bstdgpt",
    "stop_name": "Students Union",
    "ward_name": "Clifton",
    "ward_code": "E05010893",
    "area": "Bristol",
    "lat": 51.45714,
    "lon": -2.61314
  },
  "bstdgta": {
    "stop_code": "bstdgta",
    "stop_name": "Apsley Road",
    "ward_name": "Clifton Down",
    "ward_code": "E05010894",
    "area": "Bristol",
    "lat": 51.46798,
    "lon": -2.6129
  },
  "bstdgtg": {
    "stop_code": "bstdgtg",
    "stop_name": "Apsley Road",
    "ward_name": "Clifton Down",
    "ward_code": "E05010894",
    "area": "Bristol",
    "lat": 51.46804,
    "lon": -2.61308
  },
  "bstdgtp": {
    "stop_code": "bstdgtp",
    "stop_name": "Henleaze Road",
    "ward_name": "Westbury-on-Trym and Henleaze",
    "ward_code": "E05010917",
    "area": "Bristol",
    "lat": 51.48327,
    "lon": -2.61299
  },
  "bstdgwj": {
    "stop_code": "bstdgwj",
    "stop_name": "SS Great Britain",
    "ward_name": "Hotwells and Harbourside",
    "ward_code": "E05010905",
    "area": "Bristol",
    "lat": 51.4466,
    "lon": -2.61222
  },
  "bstdgwm": {
    "stop_code": "bstdgwm",
    "stop_name": "Henleaze Road",
    "ward_name": "Westbury-on-Trym and Henleaze",
    "ward_code": "E05010917",
    "area": "Bristol",
    "lat": 51.48243,
    "lon": -2.61279
  },
  "bstdjag": {
    "stop_code": "bstdjag",
    "stop_name": "Luckwell Road",
    "ward_name": "Bedminster",
    "ward_code": "E05010887",
    "area": "Bristol",
    "lat": 51.43638,
    "lon": -2.61205
  },
  "bstdjap": {
    "stop_code": "bstdjap",
    "stop_name": "Hareclive Road",
    "ward_name": "Hartcliffe and Withywood",
    "ward_code": "E05010900",
    "area": "Bristol",
    "lat": 51.41373,
    "lon": -2.61164
  },
  "bstdjat": {
    "stop_code": "bstdjat",
    "stop_name": "Northumbria Drive",
    "ward_name": "Westbury-on-Trym and Henleaze",
    "ward_code": "E05010917",
    "area": "Bristol",
    "lat": 51.48073,
    "lon": -2.61226
  },
  "bstdjaw": {
    "stop_code": "bstdjaw",
    "stop_name": "Henley Grove",
    "ward_name": "Westbury-on-Trym and Henleaze",
    "ward_code": "E05010917",
    "area": "Bristol",
    "lat": 51.48456,
    "lon": -2.61237
  },
  "bstdjdg": {
    "stop_code": "bstdjdg",
    "stop_name": "Hareclive Road",
    "ward_name": "Hartcliffe and Withywood",
    "ward_code": "E05010900",
    "area": "Bristol",
    "lat": 51.41371,
    "lon": -2.61151
  },
  "bstdjdt": {
    "stop_code": "bstdjdt",
    "stop_name": "Marsh Lane",
    "ward_name": "Bedminster",
    "ward_code": "E05010887",
    "area": "Bristol",
    "lat": 51.4339,
    "lon": -2.61137
  },
  "bstdjga": {
    "stop_code": "bstdjga",
    "stop_name": "Luckwell Road",
    "ward_name": "Bedminster",
    "ward_code": "E05010887",
    "area": "Bristol",
    "lat": 51.43596,
    "lon": -2.61139
  },
  "bstdjgm": {
    "stop_code": "bstdjgm",
    "stop_name": "Northumbria Drive",
    "ward_name": "Westbury-on-Trym and Henleaze",
    "ward_code": "E05010917",
    "area": "Bristol",
    "lat": 51.48037,
    "lon": -2.61164
  },
  "bstdjmd": {
    "stop_code": "bstdjmd",
    "stop_name": "Greville Road",
    "ward_name": "Southville",
    "ward_code": "E05010914",
    "area": "Bristol",
    "lat": 51.44086,
    "lon": -2.61145
  },
  "bstdjmt": {
    "stop_code": "bstdjmt",
    "stop_name": "Henley Grove",
    "ward_name": "Westbury-on-Trym and Henleaze",
    "ward_code": "E05010917",
    "area": "Bristol",
    "lat": 51.48569,
    "lon": -2.61116
  },
  "bstdjpd": {
    "stop_code": "bstdjpd",
    "stop_name": "Headley Park Avenue",
    "ward_name": "Bishopsworth",
    "ward_code": "E05010889",
    "area": "Bristol",
    "lat": 51.42116,
    "lon": -2.6099
  },
  "bstdjpg": {
    "stop_code": "bstdjpg",
    "stop_name": "Greville Road",
    "ward_name": "Southville",
    "ward_code": "E05010914",
    "area": "Bristol",
    "lat": 51.44037,
    "lon": -2.61012
  },
  "bstdjpj": {
    "stop_code": "bstdjpj",
    "stop_name": "Parson Street",
    "ward_name": "Bishopsworth",
    "ward_code": "E05010889",
    "area": "Bristol",
    "lat": 51.4317,
    "lon": -2.60988
  },
  "bstdjpm": {
    "stop_code": "bstdjpm",
    "stop_name": "Gatcombe Road",
    "ward_name": "Hartcliffe and Withywood",
    "ward_code": "E05010900",
    "area": "Bristol",
    "lat": 51.41106,
    "lon": -2.60956
  },
  "bstdjpw": {
    "stop_code": "bstdjpw",
    "stop_name": "Victoria Rooms",
    "ward_name": "Clifton Down",
    "ward_code": "E05010894",
    "area": "Bristol",
    "lat": 51.45808,
    "lon": -2.61073
  },
  "bstdjtm": {
    "stop_code": "bstdjtm",
    "stop_name": "Gatcombe Road",
    "ward_name": "Hartcliffe and Withywood",
    "ward_code": "E05010900",
    "area": "Bristol",
    "lat": 51.41082,
    "lon": -2.60924
  },
  "bstdjwa": {
    "stop_code": "bstdjwa",
    "stop_name": "Clifton Down Station",
    "ward_name": "Clifton Down",
    "ward_code": "E05010894",
    "area": "Bristol",
    "lat": 51.46419,
    "lon": -2.60958
  },
  "bstdjwd": {
    "stop_code": "bstdjwd",
    "stop_name": "Victoria Rooms",
    "ward_name": "Clifton Down",
    "ward_code": "E05010894",
    "area": "Bristol",
    "lat": 51.45788,
    "lon": -2.60978
  },
  "bstdjwp": {
    "stop_code": "bstdjwp",
    "stop_name": "Headley Park Avenue",
    "ward_name": "Bishopsworth",
    "ward_code": "E05010889",
    "area": "Bristol",
    "lat": 51.42156,
    "lon": -2.60889
  },
  "bstdmaj": {
    "stop_code": "bstdmaj",
    "stop_name": "Parson Street Stn",
    "ward_name": "Bedminster",
    "ward_code": "E05010887",
    "area": "Bristol",
    "lat": 51.43344,
    "lon": -2.60905
  },
  "bstdmam": {
    "stop_code": "bstdmam",
    "stop_name": "Clifton Down Station",
    "ward_name": "Clifton Down",
    "ward_code": "E05010894",
    "area": "Bristol",
    "lat": 51.46409,
    "lon": -2.60943
  },
  "bstdmda": {
    "stop_code": "bstdmda",
    "stop_name": "Henleaze Park Drive",
    "ward_name": "Westbury-on-Trym and Henleaze",
    "ward_code": "E05010917",
    "area": "Bristol",
    "lat": 51.48738,
    "lon": -2.60922
  },
  "bstdmdp": {
    "stop_code": "bstdmdp",
    "stop_name": "Belgrave Road",
    "ward_name": "Central",
    "ward_code": "E05010892",
    "area": "Bristol",
    "lat": 51.461,
    "lon": -2.6086
  },
  "bstdmdw": {
    "stop_code": "bstdmdw",
    "stop_name": "Jacob's Wells Road",
    "ward_name": "Clifton",
    "ward_code": "E05010893",
    "area": "Bristol",
    "lat": 51.45234,
    "lon": -2.60913
  },
  "bstdmga": {
    "stop_code": "bstdmga",
    "stop_name": "Belgrave Road",
    "ward_name": "Central",
    "ward_code": "E05010892",
    "area": "Bristol",
    "lat": 51.46105,
    "lon": -2.6085
  },
  "bstdmgd": {
    "stop_code": "bstdmgd",
    "stop_name": "St Josephs Road",
    "ward_name": "Henbury and Brentry",
    "ward_code": "E05010901",
    "area": "Bristol",
    "lat": 51.50996,
    "lon": -2.60902
  },
  "bstdmgm": {
    "stop_code": "bstdmgm",
    "stop_name": "Dorset Road",
    "ward_name": "Westbury-on-Trym and Henleaze",
    "ward_code": "E05010917",
    "area": "Bristol",
    "lat": 51.48864,
    "lon": -2.60862
  },
  "bstdmgp": {
    "stop_code": "bstdmgp",
    "stop_name": "Triangle West",
    "ward_name": "Central",
    "ward_code": "E05010892",
    "area": "Bristol",
    "lat": 51.45652,
    "lon": -2.60802
  },
  "bstdmgt": {
    "stop_code": "bstdmgt",
    "stop_name": "Tyndall's Park Road",
    "ward_name": "Central",
    "ward_code": "E05010892",
    "area": "Bristol",
    "lat": 51.45978,
    "lon": -2.60816
  },
  "bstdmgw": {
    "stop_code": "bstdmgw",
    "stop_name": "Jacob's Wells Road",
    "ward_name": "Clifton",
    "ward_code": "E05010893",
    "area": "Bristol",
    "lat": 51.45187,
    "lon": -2.60822
  },
  "bstdmjd": {
    "stop_code": "bstdmjd",
    "stop_name": "Parson Street Stn",
    "ward_name": "Bedminster",
    "ward_code": "E05010887",
    "area": "Bristol",
    "lat": 51.4345,
    "lon": -2.60787
  },
  "bstdmjm": {
    "stop_code": "bstdmjm",
    "stop_name": "Queen's Avenue",
    "ward_name": "Central",
    "ward_code": "E05010892",
    "area": "Bristol",
    "lat": 51.45778,
    "lon": -2.6081
  },
  "bstdmpa": {
    "stop_code": "bstdmpa",
    "stop_name": "Crosscombe Drive",
    "ward_name": "Hartcliffe and Withywood",
    "ward_code": "E05010900",
    "area": "Bristol",
    "lat": 51.40538,
    "lon": -2.60694
  },
  "bstdmpj": {
    "stop_code": "bstdmpj",
    "stop_name": "Dorset Road",
    "ward_name": "Westbury-on-Trym and Henleaze",
    "ward_code": "E05010917",
    "area": "Bristol",
    "lat": 51.48958,
    "lon": -2.608
  },
  "bstdmtd": {
    "stop_code": "bstdmtd",
    "stop_name": "Gosforth Road",
    "ward_name": "Southmead",
    "ward_code": "E05010913",
    "area": "Bristol",
    "lat": 51.50093,
    "lon": -2.60786
  },
  "bstdmtp": {
    "stop_code": "bstdmtp",
    "stop_name": "Crosscombe Drive",
    "ward_name": "Hartcliffe and Withywood",
    "ward_code": "E05010900",
    "area": "Bristol",
    "lat": 51.40536,
    "lon": -2.60648
  },
  "bstdmtw": {
    "stop_code": "bstdmtw",
    "stop_name": "Chessel Street",
    "ward_name": "Bedminster",
    "ward_code": "E05010887",
    "area": "Bristol",
    "lat": 51.43592,
    "lon": -2.60655
  },
  "bstdmwa": {
    "stop_code": "bstdmwa",
    "stop_name": "Queen's Road",
    "ward_name": "Central",
    "ward_code": "E05010892",
    "area": "Bristol",
    "lat": 51.45651,
    "lon": -2.60658
  },
  "bstdmwd": {
    "stop_code": "bstdmwd",
    "stop_name": "Crantock Avenue",
    "ward_name": "Bishopsworth",
    "ward_code": "E05010889",
    "area": "Bristol",
    "lat": 51.42307,
    "lon": -2.60635
  },
  "bstdmwg": {
    "stop_code": "bstdmwg",
    "stop_name": "Lenover Gardens",
    "ward_name": "Hartcliffe and Withywood",
    "ward_code": "E05010900",
    "area": "Bristol",
    "lat": 51.40864,
    "lon": -2.60606
  },
  "bstdmwj": {
    "stop_code": "bstdmwj",
    "stop_name": "Gosforth Road",
    "ward_name": "Southmead",
    "ward_code": "E05010913",
    "area": "Bristol",
    "lat": 51.50138,
    "lon": -2.60699
  },
  "bstdmwm": {
    "stop_code": "bstdmwm",
    "stop_name": "Sion Road",
    "ward_name": "Bedminster",
    "ward_code": "E05010887",
    "area": "Bristol",
    "lat": 51.44046,
    "lon": -2.60597
  },
  "bstdmwp": {
    "stop_code": "bstdmwp",
    "stop_name": "Gasworks Lane",
    "ward_name": "Hotwells and Harbourside",
    "ward_code": "E05010905",
    "area": "Bristol",
    "lat": 51.45048,
    "lon": -2.60591
  },
  "bstdmwt": {
    "stop_code": "bstdmwt",
    "stop_name": "Lenover Gardens",
    "ward_name": "Hartcliffe and Withywood",
    "ward_code": "E05010900",
    "area": "Bristol",
    "lat": 51.40857,
    "lon": -2.60569
  },
  "bstdpad": {
    "stop_code": "bstdpad",
    "stop_name": "Crantock Avenue",
    "ward_name": "Bishopsworth",
    "ward_code": "E05010889",
    "area": "Bristol",
    "lat": 51.42362,
    "lon": -2.60587
  },
  "bstdpaj": {
    "stop_code": "bstdpaj",
    "stop_name": "Badocks Wood School",
    "ward_name": "Southmead",
    "ward_code": "E05010913",
    "area": "Bristol",
    "lat": 51.50014,
    "lon": -2.60723
  },
  "bstdpap": {
    "stop_code": "bstdpap",
    "stop_name": "Highbury Road",
    "ward_name": "Filwood",
    "ward_code": "E05010898",
    "area": "Bristol",
    "lat": 51.42977,
    "lon": -2.6047
  },
  "bstdpat": {
    "stop_code": "bstdpat",
    "stop_name": "Gasworks Lane",
    "ward_name": "Hotwells and Harbourside",
    "ward_code": "E05010905",
    "area": "Bristol",
    "lat": 51.45054,
    "lon": -2.6057
  },
  "bstdpdg": {
    "stop_code": "bstdpdg",
    "stop_name": "St Josephs Road",
    "ward_name": "Henbury and Brentry",
    "ward_code": "E05010901",
    "area": "Bristol",
    "lat": 51.5103,
    "lon": -2.60656
  },
  "bstdpdj": {
    "stop_code": "bstdpdj",
    "stop_name": "Lake Road",
    "ward_name": "Westbury-on-Trym and Henleaze",
    "ward_code": "E05010917",
    "area": "Bristol",
    "lat": 51.49253,
    "lon": -2.6062
  },
  "bstdpdm": {
    "stop_code": "bstdpdm",
    "stop_name": "Sion Road",
    "ward_name": "Bedminster",
    "ward_code": "E05010887",
    "area": "Bristol",
    "lat": 51.44064,
    "lon": -2.60535
  },
  "bstdpdt": {
    "stop_code": "bstdpdt",
    "stop_name": "Lake Road",
    "ward_name": "Westbury-on-Trym and Henleaze",
    "ward_code": "E05010917",
    "area": "Bristol",
    "lat": 51.49242,
    "lon": -2.60501
  },
  "bstdpdw": {
    "stop_code": "bstdpdw",
    "stop_name": "United Reform Church",
    "ward_name": "Bedminster",
    "ward_code": "E05010887",
    "area": "Bristol",
    "lat": 51.43662,
    "lon": -2.60518
  },
  "bstdpgd": {
    "stop_code": "bstdpgd",
    "stop_name": "Highbury Road",
    "ward_name": "Filwood",
    "ward_code": "E05010898",
    "area": "Bristol",
    "lat": 51.43062,
    "lon": -2.6048
  },
  "bstdpgm": {
    "stop_code": "bstdpgm",
    "stop_name": "Badocks Wood School",
    "ward_name": "Southmead",
    "ward_code": "E05010913",
    "area": "Bristol",
    "lat": 51.50001,
    "lon": -2.60576
  },
  "bstdpgp": {
    "stop_code": "bstdpgp",
    "stop_name": "Park Street Top",
    "ward_name": "Central",
    "ward_code": "E05010892",
    "area": "Bristol",
    "lat": 51.45591,
    "lon": -2.60518
  },
  "bstdpgt": {
    "stop_code": "bstdpgt",
    "stop_name": "Headley Lane",
    "ward_name": "Filwood",
    "ward_code": "E05010898",
    "area": "Bristol",
    "lat": 51.42611,
    "lon": -2.60435
  },
  "bstdpjg": {
    "stop_code": "bstdpjg",
    "stop_name": "Vale Lane",
    "ward_name": "Filwood",
    "ward_code": "E05010898",
    "area": "Bristol",
    "lat": 51.42806,
    "lon": -2.60415
  },
  "bstdpmd": {
    "stop_code": "bstdpmd",
    "stop_name": "The Hawthorns",
    "ward_name": "Central",
    "ward_code": "E05010892",
    "area": "Bristol",
    "lat": 51.45922,
    "lon": -2.60411
  },
  "bstdpmg": {
    "stop_code": "bstdpmg",
    "stop_name": "Elton Road",
    "ward_name": "Central",
    "ward_code": "E05010892",
    "area": "Bristol",
    "lat": 51.45866,
    "lon": -2.60422
  },
  "bstdpmp": {
    "stop_code": "bstdpmp",
    "stop_name": "Victor Road",
    "ward_name": "Bedminster",
    "ward_code": "E05010887",
    "area": "Bristol",
    "lat": 51.43851,
    "lon": -2.60319
  },
  "bstdpwm": {
    "stop_code": "bstdpwm",
    "stop_name": "Cotham Hill",
    "ward_name": "Cotham",
    "ward_code": "E05010895",
    "area": "Bristol",
    "lat": 51.46239,
    "lon": -2.60266
  },
  "bstdpwp": {
    "stop_code": "bstdpwp",
    "stop_name": "Cotham Hill",
    "ward_name": "Cotham",
    "ward_code": "E05010895",
    "area": "Bristol",
    "lat": 51.46227,
    "lon": -2.60261
  },
  "bstdtag": {
    "stop_code": "bstdtag",
    "stop_name": "Arnside Road",
    "ward_name": "Southmead",
    "ward_code": "E05010913",
    "area": "Bristol",
    "lat": 51.50296,
    "lon": -2.6026
  },
  "bstdtam": {
    "stop_code": "bstdtam",
    "stop_name": "Arnside Road",
    "ward_name": "Southmead",
    "ward_code": "E05010913",
    "area": "Bristol",
    "lat": 51.50265,
    "lon": -2.60276
  },
  "bstdtap": {
    "stop_code": "bstdtap",
    "stop_name": "West Street",
    "ward_name": "Bedminster",
    "ward_code": "E05010887",
    "area": "Bristol",
    "lat": 51.43935,
    "lon": -2.60189
  },
  "bstdtaw": {
    "stop_code": "bstdtaw",
    "stop_name": "Dean Street",
    "ward_name": "Southville",
    "ward_code": "E05010914",
    "area": "Bristol",
    "lat": 51.44143,
    "lon": -2.60191
  },
  "bstdtdg": {
    "stop_code": "bstdtdg",
    "stop_name": "Bishport Avenue Lay-by",
    "ward_name": "Hartcliffe and Withywood",
    "ward_code": "E05010900",
    "area": "Bristol",
    "lat": 51.404,
    "lon": -2.60106
  },
  "bstdtdp": {
    "stop_code": "bstdtdp",
    "stop_name": "Bishport Avenue Lay-by",
    "ward_name": "Hartcliffe and Withywood",
    "ward_code": "E05010900",
    "area": "Bristol",
    "lat": 51.40421,
    "lon": -2.60094
  },
  "bstdtdt": {
    "stop_code": "bstdtdt",
    "stop_name": "Wilton Close",
    "ward_name": "Southmead",
    "ward_code": "E05010913",
    "area": "Bristol",
    "lat": 51.49926,
    "lon": -2.60214
  },
  "bstdtdw": {
    "stop_code": "bstdtdw",
    "stop_name": "Charlton Rd Jct",
    "ward_name": "Henbury and Brentry",
    "ward_code": "E05010901",
    "area": "Bristol",
    "lat": 51.51051,
    "lon": -2.60231
  },
  "bstdtga": {
    "stop_code": "bstdtga",
    "stop_name": "College Green",
    "ward_name": "Hotwells and Harbourside",
    "ward_code": "E05010905",
    "area": "Bristol",
    "lat": 51.45345,
    "lon": -2.60133
  },
  "bstdtgm": {
    "stop_code": "bstdtgm",
    "stop_name": "Myrtle Road",
    "ward_name": "Central",
    "ward_code": "E05010892",
    "area": "Bristol",
    "lat": 51.46046,
    "lon": -2.60129
  },
  "bstdtgw": {
    "stop_code": "bstdtgw",
    "stop_name": "Myrtle Road",
    "ward_name": "Central",
    "ward_code": "E05010892",
    "area": "Bristol",
    "lat": 51.45974,
    "lon": -2.60111
  },
  "bstdtja": {
    "stop_code": "bstdtja",
    "stop_name": "College Green",
    "ward_name": "Hotwells and Harbourside",
    "ward_code": "E05010905",
    "area": "Bristol",
    "lat": 51.45301,
    "lon": -2.60086
  },
  "bstdtjd": {
    "stop_code": "bstdtjd",
    "stop_name": "Wilton Close",
    "ward_name": "Southmead",
    "ward_code": "E05010913",
    "area": "Bristol",
    "lat": 51.49927,
    "lon": -2.6018
  },
  "bstdtjg": {
    "stop_code": "bstdtjg",
    "stop_name": "Dean Street",
    "ward_name": "Southville",
    "ward_code": "E05010914",
    "area": "Bristol",
    "lat": 51.44186,
    "lon": -2.60057
  },
  "bstdtmd": {
    "stop_code": "bstdtmd",
    "stop_name": "Wesley Street",
    "ward_name": "Southville",
    "ward_code": "E05010914",
    "area": "Bristol",
    "lat": 51.43916,
    "lon": -2.60045
  },
  "bstdtmj": {
    "stop_code": "bstdtmj",
    "stop_name": "Wapping Wharf",
    "ward_name": "Hotwells and Harbourside",
    "ward_code": "E05010905",
    "area": "Bristol",
    "lat": 51.4464,
    "lon": -2.60091
  },
  "bstdtmw": {
    "stop_code": "bstdtmw",
    "stop_name": "Whiteleaze",
    "ward_name": "Southmead",
    "ward_code": "E05010913",
    "area": "Bristol",
    "lat": 51.49491,
    "lon": -2.60095
  },
  "bstdtpa": {
    "stop_code": "bstdtpa",
    "stop_name": "Symes Avenue",
    "ward_name": "Hartcliffe and Withywood",
    "ward_code": "E05010900",
    "area": "Bristol",
    "lat": 51.40689,
    "lon": -2.59979
  },
  "bstdtpd": {
    "stop_code": "bstdtpd",
    "stop_name": "Anchor Road",
    "ward_name": "Hotwells and Harbourside",
    "ward_code": "E05010905",
    "area": "Bristol",
    "lat": 51.45093,
    "lon": -2.60033
  },
  "bstdtpg": {
    "stop_code": "bstdtpg",
    "stop_name": "Park Row",
    "ward_name": "Central",
    "ward_code": "E05010892",
    "area": "Bristol",
    "lat": 51.45551,
    "lon": -2.60039
  },
  "bstdtpw": {
    "stop_code": "bstdtpw",
    "stop_name": "Anchor Road",
    "ward_name": "Hotwells and Harbourside",
    "ward_code": "E05010905",
    "area": "Bristol",
    "lat": 51.45079,
    "lon": -2.60092
  },
  "bstdtwd": {
    "stop_code": "bstdtwd",
    "stop_name": "Symes Avenue",
    "ward_name": "Hartcliffe and Withywood",
    "ward_code": "E05010900",
    "area": "Bristol",
    "lat": 51.4071,
    "lon": -2.59967
  },
  "bstdtwg": {
    "stop_code": "bstdtwg",
    "stop_name": "East Street",
    "ward_name": "Southville",
    "ward_code": "E05010914",
    "area": "Bristol",
    "lat": 51.44108,
    "lon": -2.59972
  },
  "bstdtwt": {
    "stop_code": "bstdtwt",
    "stop_name": "Whiteleaze",
    "ward_name": "Southmead",
    "ward_code": "E05010913",
    "area": "Bristol",
    "lat": 51.49545,
    "lon": -2.60039
  },
  "bstdwad": {
    "stop_code": "bstdwad",
    "stop_name": "Hartcliffe Way",
    "ward_name": "Filwood",
    "ward_code": "E05010898",
    "area": "Bristol",
    "lat": 51.41812,
    "lon": -2.59894
  },
  "bstdwag": {
    "stop_code": "bstdwag",
    "stop_name": "Charlton Rd Jct",
    "ward_name": "Southmead",
    "ward_code": "E05010913",
    "area": "Bristol",
    "lat": 51.51041,
    "lon": -2.6004
  },
  "bstdwam": {
    "stop_code": "bstdwam",
    "stop_name": "Redland Station",
    "ward_name": "Redland",
    "ward_code": "E05010909",
    "area": "Bristol",
    "lat": 51.46854,
    "lon": -2.59954
  },
  "bstdwap": {
    "stop_code": "bstdwap",
    "stop_name": "Turnbridge Road",
    "ward_name": "Henbury and Brentry",
    "ward_code": "E05010901",
    "area": "Bristol",
    "lat": 51.51167,
    "lon": -2.59986
  },
  "bstdwat": {
    "stop_code": "bstdwat",
    "stop_name": "Redland Station",
    "ward_name": "Cotham",
    "ward_code": "E05010895",
    "area": "Bristol",
    "lat": 51.46763,
    "lon": -2.59937
  },
  "bstdwda": {
    "stop_code": "bstdwda",
    "stop_name": "The Malago",
    "ward_name": "Windmill Hill",
    "ward_code": "E05010918",
    "area": "Bristol",
    "lat": 51.43611,
    "lon": -2.59837
  },
  "bstdwdg": {
    "stop_code": "bstdwdg",
    "stop_name": "Novers Lane",
    "ward_name": "Filwood",
    "ward_code": "E05010898",
    "area": "Bristol",
    "lat": 51.42001,
    "lon": -2.59858
  },
  "bstdwdm": {
    "stop_code": "bstdwdm",
    "stop_name": "Wapping Wharf",
    "ward_name": "Central",
    "ward_code": "E05010892",
    "area": "Bristol",
    "lat": 51.44617,
    "lon": -2.59872
  },
  "bstdwdp": {
    "stop_code": "bstdwdp",
    "stop_name": "The Malago",
    "ward_name": "Windmill Hill",
    "ward_code": "E05010918",
    "area": "Bristol",
    "lat": 51.4361,
    "lon": -2.59821
  },
  "bstdwgp": {
    "stop_code": "bstdwgp",
    "stop_name": "Turnbridge Road",
    "ward_name": "Henbury and Brentry",
    "ward_code": "E05010901",
    "area": "Bristol",
    "lat": 51.51181,
    "lon": -2.5994
  },
  "bstdwgw": {
    "stop_code": "bstdwgw",
    "stop_name": "Novers Lane",
    "ward_name": "Filwood",
    "ward_code": "E05010898",
    "area": "Bristol",
    "lat": 51.41985,
    "lon": -2.59857
  },
  "bstdwja": {
    "stop_code": "bstdwja",
    "stop_name": "Lanercost Road",
    "ward_name": "Southmead",
    "ward_code": "E05010913",
    "area": "Bristol",
    "lat": 51.50977,
    "lon": -2.59958
  },
  "bstdwmj": {
    "stop_code": "bstdwmj",
    "stop_name": "The Centre",
    "ward_name": "Central",
    "ward_code": "E05010892",
    "area": "Bristol",
    "lat": 51.45338,
    "lon": -2.59783
  },
  "bstdwmt": {
    "stop_code": "bstdwmt",
    "stop_name": "Cotham Park",
    "ward_name": "Cotham",
    "ward_code": "E05010895",
    "area": "Bristol",
    "lat": 51.46613,
    "lon": -2.59777
  },
  "bstdwmw": {
    "stop_code": "bstdwmw",
    "stop_name": "Kingsholm Road",
    "ward_name": "Southmead",
    "ward_code": "E05010913",
    "area": "Bristol",
    "lat": 51.49663,
    "lon": -2.59827
  },
  "bstdwpa": {
    "stop_code": "bstdwpa",
    "stop_name": "Cotham Park",
    "ward_name": "Cotham",
    "ward_code": "E05010895",
    "area": "Bristol",
    "lat": 51.46589,
    "lon": -2.59771
  },
  "bstdwta": {
    "stop_code": "bstdwta",
    "stop_name": "Hurston Road",
    "ward_name": "Filwood",
    "ward_code": "E05010898",
    "area": "Bristol",
    "lat": 51.42226,
    "lon": -2.59687
  },
  "bstdwtd": {
    "stop_code": "bstdwtd",
    "stop_name": "Doncaster Road",
    "ward_name": "Southmead",
    "ward_code": "E05010913",
    "area": "Bristol",
    "lat": 51.49778,
    "lon": -2.59836
  },
  "bstdwtg": {
    "stop_code": "bstdwtg",
    "stop_name": "Eastleigh Road",
    "ward_name": "Southmead",
    "ward_code": "E05010913",
    "area": "Bristol",
    "lat": 51.50465,
    "lon": -2.59744
  },
  "bstdwtp": {
    "stop_code": "bstdwtp",
    "stop_name": "Lanercost Road",
    "ward_name": "Southmead",
    "ward_code": "E05010913",
    "area": "Bristol",
    "lat": 51.50859,
    "lon": -2.59756
  },
  "bstdwtw": {
    "stop_code": "bstdwtw",
    "stop_name": "The Centre",
    "ward_name": "Central",
    "ward_code": "E05010892",
    "area": "Bristol",
    "lat": 51.45268,
    "lon": -2.59706
  },
  "bstgada": {
    "stop_code": "bstgada",
    "stop_name": "The Centre",
    "ward_name": "Central",
    "ward_code": "E05010892",
    "area": "Bristol",
    "lat": 51.45493,
    "lon": -2.59687
  },
  "bstgadg": {
    "stop_code": "bstgadg",
    "stop_name": "The Centre",
    "ward_name": "Central",
    "ward_code": "E05010892",
    "area": "Bristol",
    "lat": 51.45229,
    "lon": -2.59711
  },
  "bstgadj": {
    "stop_code": "bstgadj",
    "stop_name": "Hurston Road",
    "ward_name": "Filwood",
    "ward_code": "E05010898",
    "area": "Bristol",
    "lat": 51.42246,
    "lon": -2.59644
  },
  "bstgadm": {
    "stop_code": "bstgadm",
    "stop_name": "Chakeshill Drive",
    "ward_name": "Henbury and Brentry",
    "ward_code": "E05010901",
    "area": "Bristol",
    "lat": 51.51352,
    "lon": -2.5976
  },
  "bstgadw": {
    "stop_code": "bstgadw",
    "stop_name": "Hollisters Drive",
    "ward_name": "Hartcliffe and Withywood",
    "ward_code": "E05010900",
    "area": "Bristol",
    "lat": 51.40358,
    "lon": -2.59625
  },
  "bstgagd": {
    "stop_code": "bstgagd",
    "stop_name": "Queen Square",
    "ward_name": "Central",
    "ward_code": "E05010892",
    "area": "Bristol",
    "lat": 51.45116,
    "lon": -2.59652
  },
  "bstgagm": {
    "stop_code": "bstgagm",
    "stop_name": "The Centre",
    "ward_name": "Central",
    "ward_code": "E05010892",
    "area": "Bristol",
    "lat": 51.45517,
    "lon": -2.59665
  },
  "bstgagp": {
    "stop_code": "bstgagp",
    "stop_name": "The Centre",
    "ward_name": "Central",
    "ward_code": "E05010892",
    "area": "Bristol",
    "lat": 51.45216,
    "lon": -2.59684
  },
  "bstgagt": {
    "stop_code": "bstgagt",
    "stop_name": "Cotham Side",
    "ward_name": "Cotham",
    "ward_code": "E05010895",
    "area": "Bristol",
    "lat": 51.46382,
    "lon": -2.59677
  },
  "bstgagw": {
    "stop_code": "bstgagw",
    "stop_name": "Southville Place",
    "ward_name": "Southville",
    "ward_code": "E05010914",
    "area": "Bristol",
    "lat": 51.44438,
    "lon": -2.59641
  },
  "bstgaja": {
    "stop_code": "bstgaja",
    "stop_name": "Catherine Mead Street",
    "ward_name": "Southville",
    "ward_code": "E05010914",
    "area": "Bristol",
    "lat": 51.44275,
    "lon": -2.59637
  },
  "bstgajd": {
    "stop_code": "bstgajd",
    "stop_name": "Cotham Side",
    "ward_name": "Cotham",
    "ward_code": "E05010895",
    "area": "Bristol",
    "lat": 51.46408,
    "lon": -2.59673
  },
  "bstgajg": {
    "stop_code": "bstgajg",
    "stop_name": "Kingsholm Road",
    "ward_name": "Southmead",
    "ward_code": "E05010913",
    "area": "Bristol",
    "lat": 51.49754,
    "lon": -2.59698
  },
  "bstgajm": {
    "stop_code": "bstgajm",
    "stop_name": "The Centre",
    "ward_name": "Central",
    "ward_code": "E05010892",
    "area": "Bristol",
    "lat": 51.45381,
    "lon": -2.59696
  },
  "bstgajt": {
    "stop_code": "bstgajt",
    "stop_name": "Christmas Steps",
    "ward_name": "Central",
    "ward_code": "E05010892",
    "area": "Bristol",
    "lat": 51.45593,
    "lon": -2.59623
  },
  "bstgajw": {
    "stop_code": "bstgajw",
    "stop_name": "Urmston House",
    "ward_name": "Hartcliffe and Withywood",
    "ward_code": "E05010900",
    "area": "Bristol",
    "lat": 51.40657,
    "lon": -2.59568
  },
  "bstgama": {
    "stop_code": "bstgama",
    "stop_name": "The Centre",
    "ward_name": "Central",
    "ward_code": "E05010892",
    "area": "Bristol",
    "lat": 51.45409,
    "lon": -2.59694
  },
  "bstgamp": {
    "stop_code": "bstgamp",
    "stop_name": "Bristol Royal Infirmary",
    "ward_name": "Central",
    "ward_code": "E05010892",
    "area": "Bristol",
    "lat": 51.45867,
    "lon": -2.59597
  },
  "bstgamt": {
    "stop_code": "bstgamt",
    "stop_name": "Wills Way",
    "ward_name": "Filwood",
    "ward_code": "E05010898",
    "area": "Bristol",
    "lat": 51.41607,
    "lon": -2.59568
  },
  "bstgamw": {
    "stop_code": "bstgamw",
    "stop_name": "The Centre",
    "ward_name": "Central",
    "ward_code": "E05010892",
    "area": "Bristol",
    "lat": 51.45537,
    "lon": -2.59623
  },
  "bstgapa": {
    "stop_code": "bstgapa",
    "stop_name": "Wills Way",
    "ward_name": "Filwood",
    "ward_code": "E05010898",
    "area": "Bristol",
    "lat": 51.4167,
    "lon": -2.59711
  },
  "bstgapd": {
    "stop_code": "bstgapd",
    "stop_name": "The Centre",
    "ward_name": "Central",
    "ward_code": "E05010892",
    "area": "Bristol",
    "lat": 51.45386,
    "lon": -2.59758
  },
  "bstgapj": {
    "stop_code": "bstgapj",
    "stop_name": "Hollisters Drive",
    "ward_name": "Hartcliffe and Withywood",
    "ward_code": "E05010900",
    "area": "Bristol",
    "lat": 51.40363,
    "lon": -2.59523
  },
  "bstgapt": {
    "stop_code": "bstgapt",
    "stop_name": "Littleton Road",
    "ward_name": "Windmill Hill",
    "ward_code": "E05010918",
    "area": "Bristol",
    "lat": 51.43567,
    "lon": -2.59566
  },
  "bstgatp": {
    "stop_code": "bstgatp",
    "stop_name": "Eastleigh Road",
    "ward_name": "Southmead",
    "ward_code": "E05010913",
    "area": "Bristol",
    "lat": 51.50525,
    "lon": -2.59546
  },
  "bstgawd": {
    "stop_code": "bstgawd",
    "stop_name": "Dalby Avenue",
    "ward_name": "Southville",
    "ward_code": "E05010914",
    "area": "Bristol",
    "lat": 51.44129,
    "lon": -2.59513
  },
  "bstgdaj": {
    "stop_code": "bstgdaj",
    "stop_name": "Baldwin Street",
    "ward_name": "Central",
    "ward_code": "E05010892",
    "area": "Bristol",
    "lat": 51.45343,
    "lon": -2.59521
  },
  "bstgdap": {
    "stop_code": "bstgdap",
    "stop_name": "Jarratts Road",
    "ward_name": "Southmead",
    "ward_code": "E05010913",
    "area": "Bristol",
    "lat": 51.50738,
    "lon": -2.59579
  },
  "bstgdat": {
    "stop_code": "bstgdat",
    "stop_name": "Inns Court",
    "ward_name": "Filwood",
    "ward_code": "E05010898",
    "area": "Bristol",
    "lat": 51.42099,
    "lon": -2.59478
  },
  "bstgdaw": {
    "stop_code": "bstgdaw",
    "stop_name": "Inns Court",
    "ward_name": "Filwood",
    "ward_code": "E05010898",
    "area": "Bristol",
    "lat": 51.42106,
    "lon": -2.59497
  },
  "bstgdga": {
    "stop_code": "bstgdga",
    "stop_name": "Jarratts Road",
    "ward_name": "Southmead",
    "ward_code": "E05010913",
    "area": "Bristol",
    "lat": 51.50711,
    "lon": -2.59567
  },
  "bstgdgd": {
    "stop_code": "bstgdgd",
    "stop_name": "Greenway Park",
    "ward_name": "Southmead",
    "ward_code": "E05010913",
    "area": "Bristol",
    "lat": 51.49852,
    "lon": -2.59551
  },
  "bstgdgj": {
    "stop_code": "bstgdgj",
    "stop_name": "Kingsley Road",
    "ward_name": "Redland",
    "ward_code": "E05010909",
    "area": "Bristol",
    "lat": 51.46993,
    "lon": -2.59504
  },
  "bstgdja": {
    "stop_code": "bstgdja",
    "stop_name": "Bedminster Parade",
    "ward_name": "Southville",
    "ward_code": "E05010914",
    "area": "Bristol",
    "lat": 51.44352,
    "lon": -2.59438
  },
  "bstgdjd": {
    "stop_code": "bstgdjd",
    "stop_name": "Greenway Park",
    "ward_name": "Southmead",
    "ward_code": "E05010913",
    "area": "Bristol",
    "lat": 51.49908,
    "lon": -2.5951
  },
  "bstgdma": {
    "stop_code": "bstgdma",
    "stop_name": "Littleton Road",
    "ward_name": "Windmill Hill",
    "ward_code": "E05010918",
    "area": "Bristol",
    "lat": 51.43607,
    "lon": -2.59418
  },
  "bstgdmt": {
    "stop_code": "bstgdmt",
    "stop_name": "Rupert Street",
    "ward_name": "Central",
    "ward_code": "E05010892",
    "area": "Bristol",
    "lat": 51.4568,
    "lon": -2.59457
  },
  "bstgdmw": {
    "stop_code": "bstgdmw",
    "stop_name": "Oak House",
    "ward_name": "Hartcliffe and Withywood",
    "ward_code": "E05010900",
    "area": "Bristol",
    "lat": 51.40677,
    "lon": -2.5936
  },
  "bstgdtd": {
    "stop_code": "bstgdtd",
    "stop_name": "Broadmead",
    "ward_name": "Central",
    "ward_code": "E05010892",
    "area": "Bristol",
    "lat": 51.45703,
    "lon": -2.59387
  },
  "bstgdwa": {
    "stop_code": "bstgdwa",
    "stop_name": "Broadmead",
    "ward_name": "Central",
    "ward_code": "E05010892",
    "area": "Bristol",
    "lat": 51.45771,
    "lon": -2.59403
  },
  "bstgdwj": {
    "stop_code": "bstgdwj",
    "stop_name": "New Charlotte Street",
    "ward_name": "Central",
    "ward_code": "E05010892",
    "area": "Bristol",
    "lat": 51.44564,
    "lon": -2.59365
  },
  "bstgjam": {
    "stop_code": "bstgjam",
    "stop_name": "Bedminster Parade",
    "ward_name": "Southville",
    "ward_code": "E05010914",
    "area": "Bristol",
    "lat": 51.44431,
    "lon": -2.59315
  },
  "bstgjap": {
    "stop_code": "bstgjap",
    "stop_name": "Cavan Walk",
    "ward_name": "Filwood",
    "ward_code": "E05010898",
    "area": "Bristol",
    "lat": 51.43062,
    "lon": -2.59288
  },
  "bstgjat": {
    "stop_code": "bstgjat",
    "stop_name": "Broadbury Road",
    "ward_name": "Filwood",
    "ward_code": "E05010898",
    "area": "Bristol",
    "lat": 51.42557,
    "lon": -2.59274
  },
  "bstgjda": {
    "stop_code": "bstgjda",
    "stop_name": "Cavan Walk",
    "ward_name": "Filwood",
    "ward_code": "E05010898",
    "area": "Bristol",
    "lat": 51.43064,
    "lon": -2.59272
  },
  "bstgjdg": {
    "stop_code": "bstgjdg",
    "stop_name": "Broadbury Road",
    "ward_name": "Filwood",
    "ward_code": "E05010898",
    "area": "Bristol",
    "lat": 51.42548,
    "lon": -2.59264
  },
  "bstgjdm": {
    "stop_code": "bstgjdm",
    "stop_name": "Charfield Road",
    "ward_name": "Southmead",
    "ward_code": "E05010913",
    "area": "Bristol",
    "lat": 51.50371,
    "lon": -2.59345
  },
  "bstgjgt": {
    "stop_code": "bstgjgt",
    "stop_name": "Zetland Road Junction",
    "ward_name": "Redland",
    "ward_code": "E05010909",
    "area": "Bristol",
    "lat": 51.47124,
    "lon": -2.59294
  },
  "bstgjpm": {
    "stop_code": "bstgjpm",
    "stop_name": "Baldwin Street",
    "ward_name": "Central",
    "ward_code": "E05010892",
    "area": "Bristol",
    "lat": 51.45371,
    "lon": -2.59277
  },
  "bstgjtd": {
    "stop_code": "bstgjtd",
    "stop_name": "Bus Station",
    "ward_name": "Central",
    "ward_code": "E05010892",
    "area": "Bristol",
    "lat": 51.45909,
    "lon": -2.59294
  },
  "bstgjtg": {
    "stop_code": "bstgjtg",
    "stop_name": "Cromwell Road Arches",
    "ward_name": "Ashley",
    "ward_code": "E05010885",
    "area": "Bristol",
    "lat": 51.46925,
    "lon": -2.5928
  },
  "bstgjtp": {
    "stop_code": "bstgjtp",
    "stop_name": "Bus Station",
    "ward_name": "Central",
    "ward_code": "E05010892",
    "area": "Bristol",
    "lat": 51.45913,
    "lon": -2.5928
  },
  "bstgjwd": {
    "stop_code": "bstgjwd",
    "stop_name": "Bus Station",
    "ward_name": "Central",
    "ward_code": "E05010892",
    "area": "Bristol",
    "lat": 51.45916,
    "lon": -2.59274
  },
  "bstgjwj": {
    "stop_code": "bstgjwj",
    "stop_name": "Bus Station",
    "ward_name": "Central",
    "ward_code": "E05010892",
    "area": "Bristol",
    "lat": 51.45918,
    "lon": -2.59268
  },
  "bstgjwp": {
    "stop_code": "bstgjwp",
    "stop_name": "Bus Station",
    "ward_name": "Central",
    "ward_code": "E05010892",
    "area": "Bristol",
    "lat": 51.45921,
    "lon": -2.59264
  },
  "bstgmag": {
    "stop_code": "bstgmag",
    "stop_name": "Bus Station",
    "ward_name": "Central",
    "ward_code": "E05010892",
    "area": "Bristol",
    "lat": 51.45928,
    "lon": -2.5926
  },
  "bstgmam": {
    "stop_code": "bstgmam",
    "stop_name": "Bus Station",
    "ward_name": "Central",
    "ward_code": "E05010892",
    "area": "Bristol",
    "lat": 51.45931,
    "lon": -2.59254
  },
  "bstgmdg": {
    "stop_code": "bstgmdg",
    "stop_name": "Greenfield Road",
    "ward_name": "Southmead",
    "ward_code": "E05010913",
    "area": "Bristol",
    "lat": 51.50043,
    "lon": -2.59312
  },
  "bstgmdj": {
    "stop_code": "bstgmdj",
    "stop_name": "Bus Station",
    "ward_name": "Central",
    "ward_code": "E05010892",
    "area": "Bristol",
    "lat": 51.45937,
    "lon": -2.59244
  },
  "bstgmdt": {
    "stop_code": "bstgmdt",
    "stop_name": "Bus Station",
    "ward_name": "Central",
    "ward_code": "E05010892",
    "area": "Bristol",
    "lat": 51.45939,
    "lon": -2.59238
  },
  "bstgmdw": {
    "stop_code": "bstgmdw",
    "stop_name": "Lampton Avenue",
    "ward_name": "Hartcliffe and Withywood",
    "ward_code": "E05010900",
    "area": "Bristol",
    "lat": 51.40552,
    "lon": -2.59159
  },
  "bstgmgm": {
    "stop_code": "bstgmgm",
    "stop_name": "Lampton Avenue",
    "ward_name": "Hengrove and Whitchurch Park",
    "ward_code": "E05010902",
    "area": "Bristol",
    "lat": 51.40469,
    "lon": -2.59153
  },
  "bstgmgp": {
    "stop_code": "bstgmgp",
    "stop_name": "Charfield Road",
    "ward_name": "Southmead",
    "ward_code": "E05010913",
    "area": "Bristol",
    "lat": 51.50268,
    "lon": -2.59273
  },
  "bstgmja": {
    "stop_code": "bstgmja",
    "stop_name": "Donegal Road",
    "ward_name": "Filwood",
    "ward_code": "E05010898",
    "area": "Bristol",
    "lat": 51.42885,
    "lon": -2.59173
  },
  "bstgmjd": {
    "stop_code": "bstgmjd",
    "stop_name": "Greenfield Road",
    "ward_name": "Southmead",
    "ward_code": "E05010913",
    "area": "Bristol",
    "lat": 51.50101,
    "lon": -2.59251
  },
  "bstgmjg": {
    "stop_code": "bstgmjg",
    "stop_name": "Montpelier High School",
    "ward_name": "Ashley",
    "ward_code": "E05010885",
    "area": "Bristol",
    "lat": 51.46808,
    "lon": -2.59198
  },
  "bstgmjm": {
    "stop_code": "bstgmjm",
    "stop_name": "Union Street",
    "ward_name": "Central",
    "ward_code": "E05010892",
    "area": "Bristol",
    "lat": 51.45754,
    "lon": -2.59184
  },
  "bstgmjp": {
    "stop_code": "bstgmjp",
    "stop_name": "Cromwell Road Arches",
    "ward_name": "Ashley",
    "ward_code": "E05010885",
    "area": "Bristol",
    "lat": 51.46949,
    "lon": -2.592
  },
  "bstgmpd": {
    "stop_code": "bstgmpd",
    "stop_name": "Donegal Road",
    "ward_name": "Filwood",
    "ward_code": "E05010898",
    "area": "Bristol",
    "lat": 51.42882,
    "lon": -2.59137
  },
  "bstgmpj": {
    "stop_code": "bstgmpj",
    "stop_name": "Lydney Road",
    "ward_name": "Southmead",
    "ward_code": "E05010913",
    "area": "Bristol",
    "lat": 51.50176,
    "lon": -2.59227
  },
  "bstgmpm": {
    "stop_code": "bstgmpm",
    "stop_name": "Wine Street",
    "ward_name": "Central",
    "ward_code": "E05010892",
    "area": "Bristol",
    "lat": 51.45543,
    "lon": -2.5916
  },
  "bstgmpt": {
    "stop_code": "bstgmpt",
    "stop_name": "The Haymarket",
    "ward_name": "Central",
    "ward_code": "E05010892",
    "area": "Bristol",
    "lat": 51.45879,
    "lon": -2.59161
  },
  "bstgmta": {
    "stop_code": "bstgmta",
    "stop_name": "The Haymarket",
    "ward_name": "Central",
    "ward_code": "E05010892",
    "area": "Bristol",
    "lat": 51.45832,
    "lon": -2.59174
  },
  "bstgmtd": {
    "stop_code": "bstgmtd",
    "stop_name": "Montpelier High School",
    "ward_name": "Ashley",
    "ward_code": "E05010885",
    "area": "Bristol",
    "lat": 51.46789,
    "lon": -2.59166
  },
  "bstgmtg": {
    "stop_code": "bstgmtg",
    "stop_name": "The Haymarket",
    "ward_name": "Central",
    "ward_code": "E05010892",
    "area": "Bristol",
    "lat": 51.45893,
    "lon": -2.59149
  },
  "bstgmwa": {
    "stop_code": "bstgmwa",
    "stop_name": "The Haymarket",
    "ward_name": "Central",
    "ward_code": "E05010892",
    "area": "Bristol",
    "lat": 51.45864,
    "lon": -2.5914
  },
  "bstgmwg": {
    "stop_code": "bstgmwg",
    "stop_name": "The Horsefair",
    "ward_name": "Central",
    "ward_code": "E05010892",
    "area": "Bristol",
    "lat": 51.45807,
    "lon": -2.59137
  },
  "bstgmwp": {
    "stop_code": "bstgmwp",
    "stop_name": "Sommerville Road",
    "ward_name": "Redland",
    "ward_code": "E05010909",
    "area": "Bristol",
    "lat": 51.47492,
    "lon": -2.59142
  },
  "bstgmwt": {
    "stop_code": "bstgmwt",
    "stop_name": "Union Street",
    "ward_name": "Central",
    "ward_code": "E05010892",
    "area": "Bristol",
    "lat": 51.45659,
    "lon": -2.59117
  },
  "bstgpaj": {
    "stop_code": "bstgpaj",
    "stop_name": "Wine Street",
    "ward_name": "Central",
    "ward_code": "E05010892",
    "area": "Bristol",
    "lat": 51.45544,
    "lon": -2.59135
  },
  "bstgpat": {
    "stop_code": "bstgpat",
    "stop_name": "Stokes Croft",
    "ward_name": "Central",
    "ward_code": "E05010892",
    "area": "Bristol",
    "lat": 51.46032,
    "lon": -2.59107
  },
  "bstgpaw": {
    "stop_code": "bstgpaw",
    "stop_name": "Redcliff Hill",
    "ward_name": "Central",
    "ward_code": "E05010892",
    "area": "Bristol",
    "lat": 51.44686,
    "lon": -2.59097
  },
  "bstgpda": {
    "stop_code": "bstgpda",
    "stop_name": "The Horsefair",
    "ward_name": "Central",
    "ward_code": "E05010892",
    "area": "Bristol",
    "lat": 51.45822,
    "lon": -2.59086
  },
  "bstgpgd": {
    "stop_code": "bstgpgd",
    "stop_name": "Carisbrooke Road",
    "ward_name": "Filwood",
    "ward_code": "E05010898",
    "area": "Bristol",
    "lat": 51.42184,
    "lon": -2.59053
  },
  "bstgpgm": {
    "stop_code": "bstgpgm",
    "stop_name": "The Horsefair",
    "ward_name": "Central",
    "ward_code": "E05010892",
    "area": "Bristol",
    "lat": 51.45847,
    "lon": -2.59016
  },
  "bstgpgp": {
    "stop_code": "bstgpgp",
    "stop_name": "Carisbrooke Road",
    "ward_name": "Filwood",
    "ward_code": "E05010898",
    "area": "Bristol",
    "lat": 51.42174,
    "lon": -2.59044
  },
  "bstgpgw": {
    "stop_code": "bstgpgw",
    "stop_name": "Redcliff Hill",
    "ward_name": "Central",
    "ward_code": "E05010892",
    "area": "Bristol",
    "lat": 51.4467,
    "lon": -2.59071
  },
  "bstgpjd": {
    "stop_code": "bstgpjd",
    "stop_name": "Stokes Croft",
    "ward_name": "Central",
    "ward_code": "E05010892",
    "area": "Bristol",
    "lat": 51.46099,
    "lon": -2.59085
  },
  "bstgpjm": {
    "stop_code": "bstgpjm",
    "stop_name": "Sommerville Road",
    "ward_name": "Ashley",
    "ward_code": "E05010885",
    "area": "Bristol",
    "lat": 51.47324,
    "lon": -2.59102
  },
  "bstgpjp": {
    "stop_code": "bstgpjp",
    "stop_name": "Atlas Road",
    "ward_name": "Windmill Hill",
    "ward_code": "E05010918",
    "area": "Bristol",
    "lat": 51.43639,
    "lon": -2.59035
  },
  "bstgpjt": {
    "stop_code": "bstgpjt",
    "stop_name": "Lakeshore Drive",
    "ward_name": "Hartcliffe and Withywood",
    "ward_code": "E05010900",
    "area": "Bristol",
    "lat": 51.41334,
    "lon": -2.60346
  },
  "bstgpmj": {
    "stop_code": "bstgpmj",
    "stop_name": "Nine Tree Hill",
    "ward_name": "Ashley",
    "ward_code": "E05010885",
    "area": "Bristol",
    "lat": 51.46481,
    "lon": -2.59008
  },
  "bstgpmp": {
    "stop_code": "bstgpmp",
    "stop_name": "Nine Tree Hill",
    "ward_name": "Ashley",
    "ward_code": "E05010885",
    "area": "Bristol",
    "lat": 51.46526,
    "lon": -2.5902
  },
  "bstgpmt": {
    "stop_code": "bstgpmt",
    "stop_name": "Hengrove Leisure Pk",
    "ward_name": "Filwood",
    "ward_code": "E05010898",
    "area": "Bristol",
    "lat": 51.41764,
    "lon": -2.58949
  },
  "bstgpta": {
    "stop_code": "bstgpta",
    "stop_name": "Bristol Bridge",
    "ward_name": "Central",
    "ward_code": "E05010892",
    "area": "Bristol",
    "lat": 51.45295,
    "lon": -2.58994
  },
  "bstgptj": {
    "stop_code": "bstgptj",
    "stop_name": "Bond Street",
    "ward_name": "Central",
    "ward_code": "E05010892",
    "area": "Bristol",
    "lat": 51.45926,
    "lon": -2.58985
  },
  "bstgptm": {
    "stop_code": "bstgptm",
    "stop_name": "Ship Lane",
    "ward_name": "Central",
    "ward_code": "E05010892",
    "area": "Bristol",
    "lat": 51.44565,
    "lon": -2.58959
  },
  "bstgptp": {
    "stop_code": "bstgptp",
    "stop_name": "Redcliffe Way",
    "ward_name": "Central",
    "ward_code": "E05010892",
    "area": "Bristol",
    "lat": 51.4489,
    "lon": -2.58936
  },
  "bstgpwj": {
    "stop_code": "bstgpwj",
    "stop_name": "Hatherley Road",
    "ward_name": "Bishopston and Ashley Down",
    "ward_code": "E05010888",
    "area": "Bristol",
    "lat": 51.47727,
    "lon": -2.59008
  },
  "bstgpwp": {
    "stop_code": "bstgpwp",
    "stop_name": "Bond Street",
    "ward_name": "Central",
    "ward_code": "E05010892",
    "area": "Bristol",
    "lat": 51.45927,
    "lon": -2.58962
  },
  "bstgpwt": {
    "stop_code": "bstgpwt",
    "stop_name": "Hengrove Leisure Pk",
    "ward_name": "Filwood",
    "ward_code": "E05010898",
    "area": "Bristol",
    "lat": 51.41735,
    "lon": -2.58905
  },
  "bstgtad": {
    "stop_code": "bstgtad",
    "stop_name": "Hatherley Road",
    "ward_name": "Bishopston and Ashley Down",
    "ward_code": "E05010888",
    "area": "Bristol",
    "lat": 51.47819,
    "lon": -2.58983
  },
  "bstgtaj": {
    "stop_code": "bstgtaj",
    "stop_name": "Weymouth Road",
    "ward_name": "Windmill Hill",
    "ward_code": "E05010918",
    "area": "Bristol",
    "lat": 51.43598,
    "lon": -2.58912
  },
  "bstgtam": {
    "stop_code": "bstgtam",
    "stop_name": "Sherston Road",
    "ward_name": "Horfield",
    "ward_code": "E05010904",
    "area": "Bristol",
    "lat": 51.49846,
    "lon": -2.58828
  },
  "bstgtap": {
    "stop_code": "bstgtap",
    "stop_name": "Nevil Road",
    "ward_name": "Bishopston and Ashley Down",
    "ward_code": "E05010888",
    "area": "Bristol",
    "lat": 51.47965,
    "lon": -2.58934
  },
  "bstgtaw": {
    "stop_code": "bstgtaw",
    "stop_name": "Brunswick Street",
    "ward_name": "Ashley",
    "ward_code": "E05010885",
    "area": "Bristol",
    "lat": 51.46275,
    "lon": -2.58873
  },
  "bstgtdj": {
    "stop_code": "bstgtdj",
    "stop_name": "Wedmore Vale",
    "ward_name": "Windmill Hill",
    "ward_code": "E05010918",
    "area": "Bristol",
    "lat": 51.43446,
    "lon": -2.58838
  },
  "bstgtdt": {
    "stop_code": "bstgtdt",
    "stop_name": "Redcliffe Way",
    "ward_name": "Central",
    "ward_code": "E05010892",
    "area": "Bristol",
    "lat": 51.44879,
    "lon": -2.58825
  },
  "bstgtdw": {
    "stop_code": "bstgtdw",
    "stop_name": "Bristol Bridge",
    "ward_name": "Central",
    "ward_code": "E05010892",
    "area": "Bristol",
    "lat": 51.45307,
    "lon": -2.5899
  },
  "bstgtgd": {
    "stop_code": "bstgtgd",
    "stop_name": "Kerry Road",
    "ward_name": "Filwood",
    "ward_code": "E05010898",
    "area": "Bristol",
    "lat": 51.42852,
    "lon": -2.58777
  },
  "bstgtgm": {
    "stop_code": "bstgtgm",
    "stop_name": "Spring Street",
    "ward_name": "Southville",
    "ward_code": "E05010914",
    "area": "Bristol",
    "lat": 51.44479,
    "lon": -2.58781
  },
  "bstgtgw": {
    "stop_code": "bstgtgw",
    "stop_name": "Wedmore Vale",
    "ward_name": "Filwood",
    "ward_code": "E05010898",
    "area": "Bristol",
    "lat": 51.43308,
    "lon": -2.58763
  },
  "bstgtjg": {
    "stop_code": "bstgtjg",
    "stop_name": "Nevil Road",
    "ward_name": "Bishopston and Ashley Down",
    "ward_code": "E05010888",
    "area": "Bristol",
    "lat": 51.48161,
    "lon": -2.58793
  },
  "bstgtjm": {
    "stop_code": "bstgtjm",
    "stop_name": "Sherston Road",
    "ward_name": "Horfield",
    "ward_code": "E05010904",
    "area": "Bristol",
    "lat": 51.4983,
    "lon": -2.58803
  },
  "bstgtjp": {
    "stop_code": "bstgtjp",
    "stop_name": "Brigstocke Road",
    "ward_name": "Ashley",
    "ward_code": "E05010885",
    "area": "Bristol",
    "lat": 51.46319,
    "lon": -2.5875
  },
  "bstgtma": {
    "stop_code": "bstgtma",
    "stop_name": "Belvoir Road",
    "ward_name": "Ashley",
    "ward_code": "E05010885",
    "area": "Bristol",
    "lat": 51.4689,
    "lon": -2.58734
  },
  "bstgtmd": {
    "stop_code": "bstgtmd",
    "stop_name": "Broad Weir",
    "ward_name": "Central",
    "ward_code": "E05010892",
    "area": "Bristol",
    "lat": 51.45678,
    "lon": -2.58681
  },
  "bstgtmt": {
    "stop_code": "bstgtmt",
    "stop_name": "Ashley Down Road",
    "ward_name": "Bishopston and Ashley Down",
    "ward_code": "E05010888",
    "area": "Bristol",
    "lat": 51.48251,
    "lon": -2.5875
  },
  "bstgtmw": {
    "stop_code": "bstgtmw",
    "stop_name": "Melvin Square",
    "ward_name": "Filwood",
    "ward_code": "E05010898",
    "area": "Bristol",
    "lat": 51.42802,
    "lon": -2.58677
  },
  "bstgtpa": {
    "stop_code": "bstgtpa",
    "stop_name": "Melvin Square",
    "ward_name": "Filwood",
    "ward_code": "E05010898",
    "area": "Bristol",
    "lat": 51.42847,
    "lon": -2.58623
  },
  "bstgtpg": {
    "stop_code": "bstgtpg",
    "stop_name": "Filwood Broadway",
    "ward_name": "Filwood",
    "ward_code": "E05010898",
    "area": "Bristol",
    "lat": 51.42312,
    "lon": -2.58619
  },
  "bstgtpj": {
    "stop_code": "bstgtpj",
    "stop_name": "Brigstocke Road",
    "ward_name": "Ashley",
    "ward_code": "E05010885",
    "area": "Bristol",
    "lat": 51.46382,
    "lon": -2.58644
  },
  "bstgtpt": {
    "stop_code": "bstgtpt",
    "stop_name": "Belvoir Road",
    "ward_name": "Ashley",
    "ward_code": "E05010885",
    "area": "Bristol",
    "lat": 51.46915,
    "lon": -2.58664
  },
  "bstgtpw": {
    "stop_code": "bstgtpw",
    "stop_name": "Victoria Street",
    "ward_name": "Central",
    "ward_code": "E05010892",
    "area": "Bristol",
    "lat": 51.45078,
    "lon": -2.58644
  },
  "bstgtwa": {
    "stop_code": "bstgtwa",
    "stop_name": "Penn Street",
    "ward_name": "Central",
    "ward_code": "E05010892",
    "area": "Bristol",
    "lat": 51.45849,
    "lon": -2.58679
  },
  "bstgtwd": {
    "stop_code": "bstgtwd",
    "stop_name": "Ashley Down Road",
    "ward_name": "Bishopston and Ashley Down",
    "ward_code": "E05010888",
    "area": "Bristol",
    "lat": 51.48409,
    "lon": -2.58671
  },
  "bstgtwg": {
    "stop_code": "bstgtwg",
    "stop_name": "Penn Street",
    "ward_name": "Central",
    "ward_code": "E05010892",
    "area": "Bristol",
    "lat": 51.45781,
    "lon": -2.58635
  },
  "bstgtwt": {
    "stop_code": "bstgtwt",
    "stop_name": "Penn Street",
    "ward_name": "Central",
    "ward_code": "E05010892",
    "area": "Bristol",
    "lat": 51.45772,
    "lon": -2.58626
  },
  "bstgwad": {
    "stop_code": "bstgwad",
    "stop_name": "Broad Weir",
    "ward_name": "Central",
    "ward_code": "E05010892",
    "area": "Bristol",
    "lat": 51.45672,
    "lon": -2.58662
  },
  "bstgwaw": {
    "stop_code": "bstgwaw",
    "stop_name": "Cabot Circus",
    "ward_name": "Central",
    "ward_code": "E05010892",
    "area": "Bristol",
    "lat": 51.4593,
    "lon": -2.58897
  },
  "bstgwda": {
    "stop_code": "bstgwda",
    "stop_name": "Churchways Avenue",
    "ward_name": "Bishopston and Ashley Down",
    "ward_code": "E05010888",
    "area": "Bristol",
    "lat": 51.48534,
    "lon": -2.58604
  },